[{"id":2962,"name":"Limal","commune":"WAVRE","lat":"50.6930127","lng":"4.5738899"},{"id":2963,"name":"Wavre","commune":"WAVRE","lat":"50.7162025","lng":"4.6079397"},{"id":2964,"name":"Bierges","commune":"WAVRE","lat":"50.7111796","lng":"4.5894025"},{"id":2965,"name":"La Hulpe","commune":"LA HULPE","lat":"50.7315053","lng":"4.4796542"},{"id":2966,"name":"Glimes","commune":"INCOURT","lat":"50.68160365","lng":"4.83622468364928"},{"id":2967,"name":"Incourt","commune":"INCOURT","lat":"50.692457772104","lng":"4.79535146332306"},{"id":2968,"name":"Opprebais","commune":"INCOURT","lat":"50.692457772104","lng":"4.79535146332306"},{"id":2969,"name":"Pi\u00e8trebais","commune":"INCOURT","lat":"50.7305266","lng":"4.7764685"},{"id":2970,"name":"Roux-Miroir","commune":"INCOURT","lat":"50.692457772104","lng":"4.79535146332306"},{"id":2971,"name":"Beauvechain","commune":"BEAUVECHAIN","lat":"50.781172","lng":"4.7720881"},{"id":2972,"name":"Hamme-Mille","commune":"BEAUVECHAIN","lat":"50.7819118","lng":"4.7205562"},{"id":2973,"name":"l'Ecluse","commune":"BEAUVECHAIN","lat":"50.2765792","lng":"3.0388851"},{"id":2974,"name":"Nodebais","commune":"BEAUVECHAIN","lat":"50.7725266","lng":"4.733891"},{"id":2975,"name":"Tourinnes-la-Grosse","commune":"BEAUVECHAIN","lat":"50.7777654","lng":"4.7472104"},{"id":2976,"name":"Bonlez","commune":"CHAUMONT-GISTOUX","lat":"50.7021372","lng":"4.6896145"},{"id":2977,"name":"Chaumont-Gistoux","commune":"CHAUMONT-GISTOUX","lat":"50.6856524960718","lng":"4.69401776628893"},{"id":2978,"name":"Corroy-le-Grand","commune":"CHAUMONT-GISTOUX","lat":"50.661439","lng":"4.6746485"},{"id":2979,"name":"Dion-Valmont","commune":"CHAUMONT-GISTOUX","lat":"50.7158849","lng":"4.6614812"},{"id":2980,"name":"Longueville","commune":"CHAUMONT-GISTOUX","lat":"50.2956221","lng":"3.8665192"},{"id":2981,"name":"Rixensart","commune":"RIXENSART","lat":"50.7162313","lng":"4.5344504"},{"id":2982,"name":"Rosi\u00e8res","commune":"RIXENSART","lat":"50.73704385","lng":"4.54638479352624"},{"id":2983,"name":"Genval","commune":"RIXENSART","lat":"50.7213908","lng":"4.49719889262585"},{"id":2984,"name":"Ottignies","commune":"OTTIGNIES-LOUVAIN-LA-NEUVE","lat":"50.6710056","lng":"4.56563355153358"},{"id":2985,"name":"Ottignies-Louvain-la-Neuve","commune":"OTTIGNIES-LOUVAIN-LA-NEUVE","lat":"50.6654216","lng":"4.5674107"},{"id":2987,"name":"Limelette","commune":"OTTIGNIES-LOUVAIN-LA-NEUVE","lat":"50.68534735","lng":"4.55483458346834"},{"id":2988,"name":"Louvain-la-Neuve","commune":"OTTIGNIES-LOUVAIN-LA-NEUVE","lat":"50.6743618","lng":"4.61405396869501"},{"id":2989,"name":"Enines","commune":"ORP-JAUCHE","lat":"50.6943193","lng":"4.9260633"},{"id":2990,"name":"Folx-les-Caves","commune":"ORP-JAUCHE","lat":"50.6610719","lng":"4.9370984"},{"id":2991,"name":"Jandrain-Jandrenouille","commune":"ORP-JAUCHE","lat":"50.6740112","lng":"4.9792652"},{"id":2992,"name":"Jauche","commune":"ORP-JAUCHE","lat":"50.7001001","lng":"4.9889872"},{"id":2993,"name":"Marilles","commune":"ORP-JAUCHE","lat":"50.7072943","lng":"4.9529173"},{"id":2994,"name":"Noduwez","commune":"ORP-JAUCHE","lat":"50.7295985","lng":"4.9637236"},{"id":2995,"name":"Orp-Jauche","commune":"ORP-JAUCHE","lat":"50.7001001","lng":"4.9889872"},{"id":2996,"name":"Orp-le-Grand","commune":"ORP-JAUCHE","lat":"50.7001001","lng":"4.9889872"},{"id":2998,"name":"Linsmeau","commune":"HELECINE","lat":"50.7322517","lng":"5.0030144"},{"id":2999,"name":"Neerheylissem","commune":"HELECINE","lat":"50.7567681","lng":"4.9890154"},{"id":3000,"name":"Opheylissem","commune":"HELECINE","lat":"50.74678055","lng":"4.9738468620759"},{"id":3002,"name":"Orbais","commune":"PERWEZ","lat":"50.6376269","lng":"4.7631073"},{"id":3003,"name":"Perwez","commune":"PERWEZ","lat":"50.62374","lng":"4.8137531"},{"id":3005,"name":"Thorembais-Saint-Trond","commune":"PERWEZ","lat":"50.628925237233","lng":"4.80172366851866"},{"id":3006,"name":"Autre-Eglise","commune":"RAMILLIES","lat":"50.6631583","lng":"4.9249295"},{"id":3010,"name":"Grand-Rosi\u00e8re-Hottomont","commune":"RAMILLIES","lat":"50.6316098","lng":"4.8674622"},{"id":3011,"name":"Huppaye","commune":"RAMILLIES","lat":"50.6927557","lng":"4.8921703"},{"id":3012,"name":"Mont-Saint-Andr\u00e9","commune":"RAMILLIES","lat":"67.9393251","lng":"33.040169"},{"id":3013,"name":"Ramillies","commune":"RAMILLIES","lat":"50.6366892","lng":"4.9148994"},{"id":3014,"name":"Dongelberg","commune":"JODOIGNE","lat":"50.7019816","lng":"4.8206586"},{"id":3015,"name":"Jauchelette","commune":"JODOIGNE","lat":"50.6866092","lng":"4.8435069"},{"id":3016,"name":"Jodoigne","commune":"JODOIGNE","lat":"50.7218206","lng":"4.8709616"},{"id":3017,"name":"Jodoigne-Souveraine","commune":"JODOIGNE","lat":"50.6975933","lng":"4.8471301"},{"id":3018,"name":"Lathuy","commune":"JODOIGNE","lat":"50.7230097","lng":"4.824622"},{"id":3019,"name":"M\u00e9lin","commune":"JODOIGNE","lat":"45.3824845","lng":"13.7718981"},{"id":3020,"name":"Pi\u00e9train","commune":"JODOIGNE","lat":"50.7255018","lng":"4.9175477"},{"id":3021,"name":"Saint-Jean-Geest","commune":"JODOIGNE","lat":"50.7397177","lng":"4.8957659"},{"id":3024,"name":"Couture-Saint-Germain","commune":"LASNE","lat":"50.66275175","lng":"4.48259354678395"},{"id":3025,"name":"Lasne","commune":"LASNE","lat":"50.6856135","lng":"4.4830054"},{"id":3026,"name":"Lasne-Chapelle-Saint-Lambert","commune":"LASNE","lat":"50.6589351539568","lng":"4.47702821423279"},{"id":3027,"name":"Maransart","commune":"LASNE","lat":"50.65668215","lng":"4.45623147190479"},{"id":3028,"name":"Ohain","commune":"LASNE","lat":"50.69527555","lng":"4.45140807020862"},{"id":3029,"name":"Plancenoit","commune":"LASNE","lat":"50.6625893","lng":"4.42115531573727"},{"id":3030,"name":"Archennes","commune":"GREZ-DOICEAU","lat":"50.7516077","lng":"4.6702286"},{"id":3031,"name":"Biez","commune":"GREZ-DOICEAU","lat":"50.7307455113711","lng":"4.69275923042216"},{"id":3032,"name":"Bossut-Gottechain","commune":"GREZ-DOICEAU","lat":"50.7616193","lng":"4.6990692"},{"id":3033,"name":"Grez-Doiceau","commune":"GREZ-DOICEAU","lat":"50.738692","lng":"4.6964219"},{"id":3034,"name":"Nethen","commune":"GREZ-DOICEAU","lat":"50.7838206","lng":"4.675492"},{"id":3035,"name":"Monstreux","commune":"NIVELLES","lat":"50.59307755","lng":"4.28603835900336"},{"id":3036,"name":"Nivelles","commune":"NIVELLES","lat":"50.5976413","lng":"4.3235976"},{"id":3037,"name":"Baulers","commune":"NIVELLES","lat":"50.61706355","lng":"4.35860599279826"},{"id":3038,"name":"Thines","commune":"NIVELLES","lat":"50.58664455","lng":"4.38229442207748"},{"id":3039,"name":"Bornival","commune":"NIVELLES","lat":"50.6045295","lng":"4.26495019450011"},{"id":3040,"name":"Waterloo","commune":"WATERLOO","lat":"50.7173563","lng":"4.3978047"},{"id":3041,"name":"Braine-l'Alleud","commune":"BRAINE-L ALLEUD","lat":"50.6827684","lng":"4.3693109"},{"id":3042,"name":"Ophain-Bois-Seigneur-Isaac","commune":"BRAINE-L ALLEUD","lat":"50.6658971","lng":"4.3480069"},{"id":3044,"name":"Bierghes","commune":"REBECQ","lat":"50.6967584","lng":"4.12272830625707"},{"id":3045,"name":"Quenast","commune":"REBECQ","lat":"50.67170715","lng":"4.162736347614"},{"id":3046,"name":"Rebecq","commune":"REBECQ","lat":"50.6731817","lng":"4.13482151186253"},{"id":3047,"name":"Rebecq-Rognon","commune":"REBECQ","lat":"50.65791105","lng":"4.12672561964896"},{"id":3048,"name":"Corbais","commune":"MONT-SAINT-GUIBERT","lat":"50.6356072","lng":"4.6415754"},{"id":3050,"name":"Mont-Saint-Guibert","commune":"MONT-SAINT-GUIBERT","lat":"50.6366512","lng":"4.6123288"},{"id":3052,"name":"Wauthier-Braine","commune":"BRAINE-LE-CHATEAU","lat":"50.680206","lng":"4.31314526858761"},{"id":3053,"name":"Chastre","commune":"CHASTRE","lat":"50.6080835","lng":"4.636678"},{"id":3054,"name":"Chastre-Villeroux-Blanmont","commune":"CHASTRE","lat":"50.5987571072473","lng":"4.62996510310382"},{"id":3055,"name":"Cortil-Noirmont","commune":"CHASTRE","lat":"50.5987571072473","lng":"4.62996510310382"},{"id":3056,"name":"Gentinnes","commune":"CHASTRE","lat":"50.5793325","lng":"4.59275188361874"},{"id":3057,"name":"Saint-G\u00e9ry","commune":"CHASTRE","lat":"49.3659401","lng":"-1.6595525"},{"id":3058,"name":"Nil-Saint-Vincent-Saint-Martin","commune":"WALHAIN","lat":"50.6407147","lng":"4.6743285"},{"id":3059,"name":"Tourinnes-Saint-Lambert","commune":"WALHAIN","lat":"50.6395479","lng":"4.7220185"},{"id":3060,"name":"Walhain","commune":"WALHAIN","lat":"50.6184126","lng":"4.6952311"},{"id":3061,"name":"Walhain-Saint-Paul","commune":"WALHAIN","lat":"50.6223060515229","lng":"4.6978690240244"},{"id":3062,"name":"Ittre","commune":"ITTRE","lat":"50.6488833","lng":"4.2633192"},{"id":3063,"name":"Virginal-Samme","commune":"ITTRE","lat":"50.6414925","lng":"4.21993002989474"},{"id":3064,"name":"Haut-Ittre","commune":"ITTRE","lat":"50.64881005","lng":"4.29646624543781"},{"id":3065,"name":"Baisy-Thy","commune":"GENAPPE","lat":"50.60413515","lng":"4.48805285920303"},{"id":3066,"name":"Bousval","commune":"GENAPPE","lat":"50.6319988","lng":"4.51920989716314"},{"id":3067,"name":"Genappe","commune":"GENAPPE","lat":"50.6093867","lng":"4.4508328"},{"id":3068,"name":"Loupoigne","commune":"GENAPPE","lat":"50.59236175","lng":"4.43245851605517"},{"id":3069,"name":"Vieux-Genappe","commune":"GENAPPE","lat":"50.6290467","lng":"4.40155394506524"},{"id":3070,"name":"Glabais","commune":"GENAPPE","lat":"50.63620425","lng":"4.44682512983453"},{"id":3071,"name":"Ways","commune":"GENAPPE","lat":"50.627111","lng":"4.47302911803303"},{"id":3072,"name":"Houtain-le-Val","commune":"GENAPPE","lat":"50.57602805","lng":"4.41147608799131"},{"id":3073,"name":"Clabecq","commune":"TUBIZE","lat":"50.6916039","lng":"4.22720759431774"},{"id":3074,"name":"Oisquercq","commune":"TUBIZE","lat":"50.66373205","lng":"4.220370080446"},{"id":3075,"name":"Saintes","commune":"TUBIZE","lat":"45.7420801","lng":"-0.6299329"},{"id":3076,"name":"Tubize","commune":"TUBIZE","lat":"50.69302","lng":"4.204696"},{"id":3077,"name":"Court-Saint-Etienne","commune":"COURT-SAINT-ETIENNE","lat":"50.6430553","lng":"4.5688716"},{"id":3079,"name":"Mellery","commune":"VILLERS-LA-VILLE","lat":"50.5847017","lng":"4.56737193367319"},{"id":3080,"name":"Sart-Dames-Avelines","commune":"VILLERS-LA-VILLE","lat":"50.5563444413367","lng":"4.50453705891905"},{"id":3081,"name":"Tilly","commune":"VILLERS-LA-VILLE","lat":"50.5763779","lng":"4.5521205820404"},{"id":3082,"name":"Villers-la-Ville","commune":"VILLERS-LA-VILLE","lat":"50.579033","lng":"4.5324152"},{"id":3711,"name":"Glain","commune":"LIEGE","lat":"50.6431752165727","lng":"5.57052524513222"},{"id":3712,"name":"Li\u00e8ge","commune":"LIEGE","lat":"50.6431752165727","lng":"5.57052524513222"},{"id":3713,"name":"Rocourt","commune":"LIEGE","lat":"50.678042","lng":"5.547616"},{"id":3714,"name":"Bressoux","commune":"LIEGE","lat":"50.6412964","lng":"5.6111443"},{"id":3715,"name":"Jupille-sur-Meuse","commune":"LIEGE","lat":"50.6431909","lng":"5.6301266"},{"id":3716,"name":"Li\u00e8ge","commune":"LIEGE","lat":"50.6352688575648","lng":"5.58155043046754"},{"id":3717,"name":"Wandre","commune":"LIEGE","lat":"50.670247","lng":"5.6596627"},{"id":3719,"name":"Li\u00e8ge","commune":"LIEGE","lat":"50.6206449089572","lng":"5.59742752130835"},{"id":3720,"name":"Angleur","commune":"LIEGE","lat":"50.6128164","lng":"5.5954054"},{"id":3722,"name":"Herstal","commune":"HERSTAL","lat":"50.6686678406671","lng":"5.62883484448423"},{"id":3723,"name":"Milmort","commune":"HERSTAL","lat":"50.6717291945384","lng":"5.58657966213244"},{"id":3724,"name":"Vottem","commune":"HERSTAL","lat":"50.6717291945384","lng":"5.58657966213244"},{"id":3725,"name":"Liers","commune":"HERSTAL","lat":"50.688605725602","lng":"5.57962015589451"},{"id":3726,"name":"Chaudfontaine","commune":"CHAUDFONTAINE","lat":"50.5847922","lng":"5.6469688"},{"id":3728,"name":"Beaufays","commune":"CHAUDFONTAINE","lat":"50.5705168824512","lng":"5.64022784069988"},{"id":3729,"name":"Embourg","commune":"CHAUDFONTAINE","lat":"50.5851388844401","lng":"5.60841182508736"},{"id":3730,"name":"Boncelles","commune":"SERAING","lat":"50.579479249059","lng":"5.53231221807141"},{"id":3731,"name":"Seraing","commune":"SERAING","lat":"50.5966392","lng":"5.5083375"},{"id":3732,"name":"Jemeppe-sur-Meuse","commune":"SERAING","lat":"50.6196078","lng":"5.5151163"},{"id":3734,"name":"Ehein","commune":"NEUPRE","lat":"50.5445135","lng":"5.4444346"},{"id":3736,"name":"Rotheux-Rimi\u00e8re","commune":"NEUPRE","lat":"50.534743","lng":"5.4815751"},{"id":3737,"name":"Neuville-en-Condroz","commune":"NEUPRE","lat":"50.5495901179053","lng":"5.47050826490115"},{"id":3738,"name":"Plainevaux","commune":"NEUPRE","lat":"50.5461554","lng":"5.5145672"},{"id":3739,"name":"Esneux","commune":"ESNEUX","lat":"50.5314981","lng":"5.5706421"},{"id":3740,"name":"Tilff","commune":"ESNEUX","lat":"50.5561941898339","lng":"5.57858394229039"},{"id":3741,"name":"Dolembreux","commune":"SPRIMONT","lat":"50.5375706","lng":"5.62799963481202"},{"id":3743,"name":"Rouvreux","commune":"SPRIMONT","lat":"50.48945435","lng":"5.66430787517048"},{"id":3744,"name":"Sprimont","commune":"SPRIMONT","lat":"50.5066141","lng":"5.64661971775873"},{"id":3746,"name":"Anthisnes","commune":"ANTHISNES","lat":"50.481662","lng":"5.5225261"},{"id":3747,"name":"Villers-aux-Tours","commune":"ANTHISNES","lat":"50.4969412","lng":"5.5122974"},{"id":3748,"name":"Hody","commune":"ANTHISNES","lat":"50.4863469","lng":"5.5004539"},{"id":3749,"name":"Tavier","commune":"ANTHISNES","lat":"50.4960227","lng":"5.4707571"},{"id":3750,"name":"Comblain-au-Pont","commune":"COMBLAIN-AU-PONT","lat":"50.475603","lng":"5.5747506"},{"id":3751,"name":"Poulseur","commune":"COMBLAIN-AU-PONT","lat":"50.5097627","lng":"5.5827847"},{"id":3752,"name":"Comblain-Fairon","commune":"HAMOIR","lat":"50.4253958","lng":"5.5328465"},{"id":3753,"name":"Comblain-la-Tour","commune":"HAMOIR","lat":"50.4553077","lng":"5.5699525"},{"id":3754,"name":"Hamoir","commune":"HAMOIR","lat":"50.4253958","lng":"5.5328465"},{"id":3755,"name":"Filot","commune":"HAMOIR","lat":"50.426751","lng":"5.5680501"},{"id":3756,"name":"Ferri\u00e8res","commune":"FERRIERES","lat":"50.403486138394","lng":"5.61280436065997"},{"id":3757,"name":"My","commune":"FERRIERES","lat":"50.40526","lng":"5.5726031"},{"id":3758,"name":"Vieuxville","commune":"FERRIERES","lat":"50.3956616","lng":"5.5514325"},{"id":3759,"name":"Werbomont","commune":"FERRIERES","lat":"50.3800581","lng":"5.6868535"},{"id":3760,"name":"Xhoris","commune":"FERRIERES","lat":"50.443983","lng":"5.602069"},{"id":3761,"name":"Burdinne","commune":"BURDINNE","lat":"50.5801072894403","lng":"5.07462818620951"},{"id":3764,"name":"Marneffe","commune":"BURDINNE","lat":"50.5790977","lng":"5.1448898"},{"id":3765,"name":"Oteppe","commune":"BURDINNE","lat":"50.5826777","lng":"5.121102"},{"id":3766,"name":"H\u00e9ron","commune":"HERON","lat":"48.2386695","lng":"18.5330097"},{"id":3767,"name":"Lavoir","commune":"HERON","lat":"47.2729014","lng":"-0.8144557"},{"id":3769,"name":"Couthuin","commune":"HERON","lat":"50.5331675","lng":"5.1318708"},{"id":3770,"name":"Acosse","commune":"WASSEIGES","lat":"50.5945676","lng":"5.0485986"},{"id":3771,"name":"Ambresin","commune":"WASSEIGES","lat":"50.6266779","lng":"5.0305133"},{"id":3772,"name":"Meeffe","commune":"WASSEIGES","lat":"50.6200011043536","lng":"5.01540873405321"},{"id":3773,"name":"Wasseiges","commune":"WASSEIGES","lat":"50.6200011043536","lng":"5.01540873405321"},{"id":3774,"name":"Bo\u00eblhe","commune":"GEER","lat":"50.6686017","lng":"5.1708379"},{"id":3775,"name":"Geer","commune":"GEER","lat":"50.6686017","lng":"5.1708379"},{"id":3776,"name":"Hollogne-sur-Geer","commune":"GEER","lat":"50.6770806","lng":"5.2045681"},{"id":3777,"name":"Lens-Saint-Servais","commune":"GEER","lat":"50.6633613","lng":"5.1554556"},{"id":3778,"name":"Omal","commune":"GEER","lat":"50.6517310271315","lng":"5.19136843863386"},{"id":3779,"name":"Darion","commune":"GEER","lat":"50.6649171","lng":"5.187047"},{"id":3780,"name":"Ligney","commune":"GEER","lat":"50.66174","lng":"5.182381"},{"id":3781,"name":"Berloz","commune":"BERLOZ","lat":"50.6977331","lng":"5.2146261"},{"id":3782,"name":"Corswarem","commune":"BERLOZ","lat":"50.7095698","lng":"5.2131541"},{"id":3783,"name":"Rosoux-Crenwick","commune":"BERLOZ","lat":"50.7079617","lng":"5.189774"},{"id":3784,"name":"Avennes","commune":"BRAIVES","lat":"50.6287517","lng":"5.1159746"},{"id":3785,"name":"Braives","commune":"BRAIVES","lat":"50.6151186412156","lng":"5.16596131617932"},{"id":3786,"name":"Ciplet","commune":"BRAIVES","lat":"50.6171393","lng":"5.0953487"},{"id":3787,"name":"Fallais","commune":"BRAIVES","lat":"50.6151186412156","lng":"5.16596131617932"},{"id":3788,"name":"Fumal","commune":"BRAIVES","lat":"50.586887","lng":"5.184607"},{"id":3789,"name":"Ville-en-Hesbaye","commune":"BRAIVES","lat":"50.6182889","lng":"5.1157512"},{"id":3790,"name":"Latinne","commune":"BRAIVES","lat":"50.6242037","lng":"5.1632447"},{"id":3792,"name":"Abolens","commune":"HANNUT","lat":"50.6720609","lng":"5.1498313"},{"id":3793,"name":"Avernas-le-Bauduin","commune":"HANNUT","lat":"50.694616","lng":"5.0789239"},{"id":3794,"name":"Avin","commune":"HANNUT","lat":"50.620859","lng":"5.067671"},{"id":3795,"name":"Bertr\u00e9e","commune":"HANNUT","lat":"43.5984","lng":"1.93969"},{"id":3796,"name":"Blehen","commune":"HANNUT","lat":"50.662995","lng":"5.125554"},{"id":3797,"name":"Cras-Avernas","commune":"HANNUT","lat":"50.6978983","lng":"5.122837"},{"id":3798,"name":"Crehen","commune":"HANNUT","lat":"48.546319","lng":"-2.213879"},{"id":3799,"name":"Grand-Hallet","commune":"HANNUT","lat":"50.6939669","lng":"5.0346727"},{"id":3800,"name":"Hannut","commune":"HANNUT","lat":"50.6675880831517","lng":"5.08044650858344"},{"id":3801,"name":"Lens-Saint-Remy","commune":"HANNUT","lat":"50.6534024","lng":"5.1329047"},{"id":3802,"name":"Merdorp","commune":"HANNUT","lat":"50.6492972","lng":"4.9987365"},{"id":3803,"name":"Moxhe","commune":"HANNUT","lat":"50.630421","lng":"5.081609"},{"id":3804,"name":"Petit-Hallet","commune":"HANNUT","lat":"50.6875594","lng":"5.0184357"},{"id":3805,"name":"Poucet","commune":"HANNUT","lat":"50.6774878","lng":"5.1150144"},{"id":3806,"name":"Thisnes","commune":"HANNUT","lat":"50.665315","lng":"5.04799"},{"id":3807,"name":"Trogn\u00e9e","commune":"HANNUT","lat":"48.4091873","lng":"1.0121906"},{"id":3808,"name":"Villers-le-Peuplier","commune":"HANNUT","lat":"50.656503","lng":"5.09579"},{"id":3809,"name":"Wansin","commune":"HANNUT","lat":"50.678627","lng":"5.02018"},{"id":3810,"name":"Lincent","commune":"LINCENT","lat":"50.72470075","lng":"5.01948657837683"},{"id":3811,"name":"Pellaines","commune":"LINCENT","lat":"50.7244839","lng":"5.00745660276366"},{"id":3812,"name":"Racour","commune":"LINCENT","lat":"50.7388269","lng":"5.0290114"},{"id":3813,"name":"Bettincourt","commune":"WAREMME","lat":"50.7099793","lng":"5.235361"},{"id":3814,"name":"Bleret","commune":"WAREMME","lat":"50.6817646290679","lng":"5.27240407261382"},{"id":3815,"name":"Bovenistier","commune":"WAREMME","lat":"50.6817646290679","lng":"5.27240407261382"},{"id":3816,"name":"Grand-Axhe","commune":"WAREMME","lat":"50.6789987","lng":"5.2243853"},{"id":3817,"name":"Lantremange","commune":"WAREMME","lat":"50.7101161","lng":"5.30711552616935"},{"id":3818,"name":"Oleye","commune":"WAREMME","lat":"50.7125474","lng":"5.2808546"},{"id":3819,"name":"Waremme","commune":"WAREMME","lat":"50.6817646290679","lng":"5.27240407261382"},{"id":3820,"name":"Aineffe","commune":"FAIMES","lat":"50.6229561","lng":"5.256235"},{"id":3821,"name":"Borlez","commune":"FAIMES","lat":"50.632984","lng":"5.245072"},{"id":3823,"name":"Faimes","commune":"FAIMES","lat":"50.65504014571","lng":"5.25256376110505"},{"id":3824,"name":"Les Waleffes","commune":"FAIMES","lat":"50.6402367","lng":"5.2180365"},{"id":3825,"name":"Viemme","commune":"FAIMES","lat":"50.65504014571","lng":"5.25256376110505"},{"id":3826,"name":"Awans","commune":"AWANS","lat":"50.6669712","lng":"5.4620018"},{"id":3827,"name":"Fooz","commune":"AWANS","lat":"50.6669712","lng":"5.4620018"},{"id":3828,"name":"Oth\u00e9e","commune":"AWANS","lat":"49.4952777","lng":"5.4425662"},{"id":3830,"name":"Hognoul","commune":"AWANS","lat":"50.6808099","lng":"5.4556394"},{"id":3831,"name":"Fexhe-le-Haut-Clocher","commune":"FEXHE-LE-HAUT-CLOCHER","lat":"50.6650249944019","lng":"5.39993674073696"},{"id":3832,"name":"Freloux","commune":"FEXHE-LE-HAUT-CLOCHER","lat":"50.6803347","lng":"5.4066762"},{"id":3834,"name":"Roloux","commune":"FEXHE-LE-HAUT-CLOCHER","lat":"50.6494928","lng":"5.3960063"},{"id":3835,"name":"Voroux-Goreux","commune":"FEXHE-LE-HAUT-CLOCHER","lat":"50.654798","lng":"5.4268601"},{"id":3836,"name":"Lamine","commune":"REMICOURT","lat":"50.681301325","lng":"5.3267606"},{"id":3837,"name":"Momalle","commune":"REMICOURT","lat":"50.6852325","lng":"5.3730111"},{"id":3838,"name":"Pousset","commune":"REMICOURT","lat":"48.5070817","lng":"0.4124132"},{"id":3839,"name":"Remicourt","commune":"REMICOURT","lat":"50.681301325","lng":"5.3267606"},{"id":3840,"name":"Hodeige","commune":"REMICOURT","lat":"50.695995","lng":"5.341948"},{"id":3841,"name":"Donceel","commune":"DONCEEL","lat":"50.6520423928048","lng":"5.31802967009771"},{"id":3842,"name":"Haneffe","commune":"DONCEEL","lat":"50.6387144","lng":"5.3192131"},{"id":3844,"name":"Limont","commune":"DONCEEL","lat":"50.6520423928048","lng":"5.31802967009771"},{"id":3845,"name":"Bergilers","commune":"OREYE","lat":"50.7145424","lng":"5.3277139"},{"id":3846,"name":"Grandville","commune":"OREYE","lat":"49.77967","lng":"4.79555"},{"id":3847,"name":"Lens-sur-Geer","commune":"OREYE","lat":"50.7270054480998","lng":"5.35058304229948"},{"id":3848,"name":"Oreye","commune":"OREYE","lat":"50.7270054480998","lng":"5.35058304229948"},{"id":3849,"name":"Otrange","commune":"OREYE","lat":"50.7370788","lng":"5.384458"},{"id":3851,"name":"Fize-le-Marsal","commune":"CRISNEE","lat":"50.701353","lng":"5.386298"},{"id":3852,"name":"Kemexhe","commune":"CRISNEE","lat":"50.6961807","lng":"5.4060353"},{"id":3853,"name":"Odeur","commune":"CRISNEE","lat":"50.707654","lng":"5.4158293"},{"id":3854,"name":"Thys","commune":"CRISNEE","lat":"50.7230152","lng":"5.3903112"},{"id":3855,"name":"Awirs","commune":"FLEMALLE","lat":"50.5857939","lng":"5.41996030692339"},{"id":3856,"name":"Chokier","commune":"FLEMALLE","lat":"50.599073582781","lng":"5.45547620784114"},{"id":3861,"name":"Ivoz-Ramet","commune":"FLEMALLE","lat":"50.599073582781","lng":"5.45547620784114"},{"id":3862,"name":"Mons-lez-Li\u00e8ge","commune":"FLEMALLE","lat":"50.6224546","lng":"5.4600597"},{"id":3865,"name":"Tilleur","commune":"SAINT-NICOLAS","lat":"50.6135908","lng":"5.53241042074074"},{"id":3866,"name":"Ans","commune":"ANS","lat":"50.6613495733047","lng":"5.51940057831661"},{"id":3867,"name":"Loncin","commune":"ANS","lat":"50.665153","lng":"5.502732"},{"id":3868,"name":"Alleur","commune":"ANS","lat":"50.6758697461294","lng":"5.52066043580251"},{"id":3869,"name":"Xhendremael","commune":"ANS","lat":"50.7043671","lng":"5.4805775"},{"id":3870,"name":"Juprelle","commune":"JUPRELLE","lat":"50.7186852319892","lng":"5.54312047587604"},{"id":3871,"name":"Lantin","commune":"JUPRELLE","lat":"50.6879619","lng":"5.5234944"},{"id":3872,"name":"Slins","commune":"JUPRELLE","lat":"50.7277246","lng":"5.5652092"},{"id":3873,"name":"Voroux-lez-Liers","commune":"JUPRELLE","lat":"50.687631","lng":"5.552484"},{"id":3874,"name":"Paifve","commune":"JUPRELLE","lat":"50.7320718860449","lng":"5.52530644404419"},{"id":3875,"name":"Wihogne","commune":"JUPRELLE","lat":"50.7320718860449","lng":"5.52530644404419"},{"id":3876,"name":"Villers-Saint-Sim\u00e9on","commune":"JUPRELLE","lat":"50.3175729","lng":"2.491989"},{"id":3877,"name":"Fexhe-Slins","commune":"JUPRELLE","lat":"50.7219179","lng":"5.5714611"},{"id":3878,"name":"Bierset","commune":"GRACE-HOLLOGNE","lat":"50.6547149","lng":"5.4512607"},{"id":3881,"name":"Hollogne-aux-Pierres","commune":"GRACE-HOLLOGNE","lat":"50.638199","lng":"5.4735531"},{"id":3883,"name":"Velroux","commune":"GRACE-HOLLOGNE","lat":"50.6436521","lng":"5.4254194"},{"id":3884,"name":"Saint-Georges-sur-Meuse","commune":"SAINT-GEORGES-SUR-MEUSE","lat":"50.6000686","lng":"5.3579041"},{"id":3885,"name":"Clermont-sous-Huy","commune":"ENGIS","lat":"50.5699722605622","lng":"5.39650828283072"},{"id":3886,"name":"Engis","commune":"ENGIS","lat":"50.582433","lng":"5.4043113"},{"id":3887,"name":"Hermalle-sous-Huy","commune":"ENGIS","lat":"50.5685571","lng":"5.38366763489159"},{"id":3888,"name":"Ben-Ahin","commune":"HUY","lat":"50.5033196","lng":"5.1773498"},{"id":3889,"name":"Huy","commune":"HUY","lat":"50.5151018236915","lng":"5.22967813314296"},{"id":3890,"name":"Tihange","commune":"HUY","lat":"50.5335255","lng":"5.27399109372712"},{"id":3891,"name":"Antheit","commune":"WANZE","lat":"50.5512026","lng":"5.2358517"},{"id":3892,"name":"Bas-Oha","commune":"WANZE","lat":"50.522397","lng":"5.1880583"},{"id":3893,"name":"Huccorgne","commune":"WANZE","lat":"50.56759","lng":"5.1647622"},{"id":3894,"name":"Moha","commune":"WANZE","lat":"50.5462586","lng":"5.17943489534769"},{"id":3895,"name":"Vinalmont","commune":"WANZE","lat":"50.562838","lng":"5.225831"},{"id":3896,"name":"Wanze","commune":"WANZE","lat":"50.5417111273285","lng":"5.20574430811831"},{"id":3897,"name":"Fize-Fontaine","commune":"VILLERS-LE-BOUILLET","lat":"50.5849842","lng":"5.2835083"},{"id":3898,"name":"Vaux-et-Borset","commune":"VILLERS-LE-BOUILLET","lat":"50.6131537","lng":"5.23141"},{"id":3899,"name":"Vieux-Waleffe","commune":"VILLERS-LE-BOUILLET","lat":"50.6162261","lng":"5.204558"},{"id":3900,"name":"Villers-le-Bouillet","commune":"VILLERS-LE-BOUILLET","lat":"50.5841600216439","lng":"5.25233265873389"},{"id":3901,"name":"Warnant-Dreye","commune":"VILLERS-LE-BOUILLET","lat":"50.5949524","lng":"5.2282048"},{"id":3902,"name":"Chapon-Seraing","commune":"VERLAINE","lat":"50.609673","lng":"5.2734472"},{"id":3904,"name":"Verlaine","commune":"VERLAINE","lat":"50.6081513090219","lng":"5.31029280798639"},{"id":3905,"name":"Amay","commune":"AMAY","lat":"50.5485681688781","lng":"5.31085711829491"},{"id":3906,"name":"Ampsin","commune":"AMAY","lat":"50.540238","lng":"5.286736"},{"id":3908,"name":"Jehay","commune":"AMAY","lat":"50.5668308","lng":"5.32680897912264"},{"id":3909,"name":"Ombret","commune":"AMAY","lat":"50.5442809","lng":"5.3371708"},{"id":3910,"name":"Nandrin","commune":"NANDRIN","lat":"50.5200185174679","lng":"5.41087401838599"},{"id":3912,"name":"Villers-le-Temple","commune":"NANDRIN","lat":"50.5081151","lng":"5.3708571"},{"id":3914,"name":"Ab\u00e9e","commune":"TINLOT","lat":"50.7041498","lng":"5.8585553"},{"id":3915,"name":"Fraiture","commune":"TINLOT","lat":"50.4883481","lng":"5.6049471"},{"id":3916,"name":"Ramelot","commune":"TINLOT","lat":"50.4644497","lng":"5.3286278"},{"id":3917,"name":"Seny","commune":"TINLOT","lat":"50.4605473","lng":"5.4037766"},{"id":3918,"name":"Soheit-Tinlot","commune":"TINLOT","lat":"50.4794492","lng":"5.3766541"},{"id":3919,"name":"Tinlot","commune":"TINLOT","lat":"50.4726673631037","lng":"5.37665634471143"},{"id":3920,"name":"Bois-et-Borsu","commune":"CLAVIER","lat":"50.4050655845898","lng":"5.33893454226232"},{"id":3921,"name":"Clavier","commune":"CLAVIER","lat":"50.4050655845898","lng":"5.33893454226232"},{"id":3922,"name":"Les Avins","commune":"CLAVIER","lat":"50.415532","lng":"5.299319"},{"id":3923,"name":"Ocquier","commune":"CLAVIER","lat":"50.3965212","lng":"5.3954539"},{"id":3924,"name":"Pailhe","commune":"CLAVIER","lat":"50.4229708","lng":"5.2579288"},{"id":3925,"name":"Terwagne","commune":"CLAVIER","lat":"50.4441622","lng":"5.3487643"},{"id":3926,"name":"Marchin","commune":"MARCHIN","lat":"50.4736233712483","lng":"5.23313918190359"},{"id":3927,"name":"Vyle-et-Tharoul","commune":"MARCHIN","lat":"50.4462845","lng":"5.2683004"},{"id":3928,"name":"Modave","commune":"MODAVE","lat":"50.4557141423812","lng":"5.29548983099693"},{"id":3929,"name":"Outrelouxhe","commune":"MODAVE","lat":"50.504232","lng":"5.335294"},{"id":3931,"name":"Vierset-Barse","commune":"MODAVE","lat":"50.4557141423812","lng":"5.29548983099693"},{"id":3932,"name":"Ellemelle","commune":"OUFFET","lat":"50.4664238","lng":"5.442913"},{"id":3933,"name":"Ouffet","commune":"OUFFET","lat":"50.4411640471323","lng":"5.46562348057478"},{"id":3935,"name":"Lanaye","commune":"VISE","lat":"50.78029565","lng":"5.69514539497949"},{"id":3936,"name":"Lixhe","commune":"VISE","lat":"50.75678125","lng":"5.67968287886251"},{"id":3937,"name":"Richelle","commune":"VISE","lat":"50.7171434","lng":"5.695354"},{"id":3938,"name":"Vis\u00e9","commune":"VISE","lat":"43.057417","lng":"16.1890335"},{"id":3939,"name":"Argenteau","commune":"VISE","lat":"50.6957645","lng":"5.686015"},{"id":3940,"name":"Cheratte","commune":"VISE","lat":"50.682809","lng":"5.670164"},{"id":3941,"name":"Saint-Andr\u00e9","commune":"DALHEM","lat":"67.9393251","lng":"33.040169"},{"id":3942,"name":"Berneau","commune":"DALHEM","lat":"50.7423427","lng":"5.731253"},{"id":3943,"name":"Bombaye","commune":"DALHEM","lat":"50.730153","lng":"5.7429371"},{"id":3944,"name":"Dalhem","commune":"DALHEM","lat":"50.7139302","lng":"5.7229816"},{"id":3945,"name":"Feneur","commune":"DALHEM","lat":"50.704253","lng":"5.713828"},{"id":3946,"name":"Mortroux","commune":"DALHEM","lat":"50.70059505","lng":"5.76278282664405"},{"id":3948,"name":"Warsage","commune":"DALHEM","lat":"50.7352250660542","lng":"5.76286409662498"},{"id":3949,"name":"Bellaire","commune":"BEYNE-HEUSAY","lat":"29.7057858","lng":"-95.4588299"},{"id":3950,"name":"Beyne-Heusay","commune":"BEYNE-HEUSAY","lat":"50.6251532752868","lng":"5.65928852047729"},{"id":3951,"name":"Queue-du-Bois","commune":"BEYNE-HEUSAY","lat":"50.63629505","lng":"5.67423320746752"},{"id":3953,"name":"Retinne","commune":"FLERON","lat":"50.6348050238498","lng":"5.69979360706379"},{"id":3954,"name":"Magn\u00e9e","commune":"FLERON","lat":"46.0164746","lng":"-0.7329647"},{"id":3956,"name":"Ayeneux","commune":"SOUMAGNE","lat":"50.6147718","lng":"5.739941"},{"id":3957,"name":"Micheroux","commune":"SOUMAGNE","lat":"50.6147718","lng":"5.739941"},{"id":3958,"name":"Soumagne","commune":"SOUMAGNE","lat":"50.6147718","lng":"5.739941"},{"id":3959,"name":"Tign\u00e9e","commune":"SOUMAGNE","lat":"47.2003801","lng":"-0.4287621"},{"id":3962,"name":"Melen","commune":"SOUMAGNE","lat":"41.050213","lng":"30.964861"},{"id":3963,"name":"Chaineux","commune":"HERVE","lat":"50.6346656260949","lng":"5.81469697869434"},{"id":3964,"name":"Grand-Rechain","commune":"HERVE","lat":"50.6346656260949","lng":"5.81469697869434"},{"id":3965,"name":"Herve","commune":"HERVE","lat":"50.6346656260949","lng":"5.81469697869434"},{"id":3967,"name":"Battice","commune":"HERVE","lat":"50.6482697","lng":"5.8194813"},{"id":3968,"name":"Xhendelesse","commune":"HERVE","lat":"50.6037018","lng":"5.7726472"},{"id":3969,"name":"Bolland","commune":"HERVE","lat":"50.6477668","lng":"5.7702472"},{"id":3970,"name":"Charneux","commune":"HERVE","lat":"50.6796435083713","lng":"5.82172514521359"},{"id":3972,"name":"Mortier","commune":"BLEGNY","lat":"50.6759047377613","lng":"5.72995416076514"},{"id":3973,"name":"Trembleur","commune":"BLEGNY","lat":"50.6759047377613","lng":"5.72995416076514"},{"id":3974,"name":"Barchon","commune":"BLEGNY","lat":"50.6785207372934","lng":"5.69055872506049"},{"id":3975,"name":"Housse","commune":"BLEGNY","lat":"50.6785207372934","lng":"5.69055872506049"},{"id":3976,"name":"Saive","commune":"BLEGNY","lat":"50.6785207372934","lng":"5.69055872506049"},{"id":3978,"name":"Herm\u00e9e","commune":"OUPEYE","lat":"48.4823364","lng":"3.3460308"},{"id":3979,"name":"Oupeye","commune":"OUPEYE","lat":"50.7091889","lng":"5.6450671"},{"id":3980,"name":"Hermalle-sous-Argenteau","commune":"OUPEYE","lat":"50.7320330479842","lng":"5.68427897398337"},{"id":3981,"name":"Heure-le-Romain","commune":"OUPEYE","lat":"50.7316969","lng":"5.6295554"},{"id":3983,"name":"Vivegnis","commune":"OUPEYE","lat":"50.697932","lng":"5.6527071"},{"id":3984,"name":"Haccourt","commune":"OUPEYE","lat":"50.7339784","lng":"5.6667674"},{"id":3985,"name":"Bassenge","commune":"BASSENGE","lat":"50.7734605413927","lng":"5.631313703348"},{"id":3986,"name":"Boirs","commune":"BASSENGE","lat":"50.7539251","lng":"5.5788622"},{"id":3987,"name":"Eben-Emael","commune":"BASSENGE","lat":"50.7936015","lng":"5.6665772"},{"id":3988,"name":"Glons","commune":"BASSENGE","lat":"50.7522108","lng":"5.5408301"},{"id":3989,"name":"Roclenge-sur-Geer","commune":"BASSENGE","lat":"50.756864","lng":"5.59407"},{"id":3990,"name":"Wonck","commune":"BASSENGE","lat":"50.7734605413927","lng":"5.631313703348"},{"id":3991,"name":"Eupen","commune":"EUPEN","lat":"50.6304004","lng":"6.0313186"},{"id":3992,"name":"Kettenis","commune":"EUPEN","lat":"50.6442451627544","lng":"6.05414244579913"},{"id":3993,"name":"Lontzen","commune":"LONTZEN","lat":"50.6643123116429","lng":"5.98854423240622"},{"id":3994,"name":"Walhorn","commune":"LONTZEN","lat":"50.6693165116936","lng":"6.04348682793752"},{"id":3995,"name":"Kelmis","commune":"LA CALAMINE","lat":"50.7155981357955","lng":"6.00494898565647"},{"id":3996,"name":"La Calamine","commune":"LA CALAMINE","lat":"50.7155981357955","lng":"6.00494898565647"},{"id":3997,"name":"Neu-Moresnet","commune":"LA CALAMINE","lat":"50.7197248","lng":"6.0247102"},{"id":3998,"name":"Hergenrath","commune":"LA CALAMINE","lat":"50.7150768145068","lng":"6.03877252630552"},{"id":3999,"name":"Hauset","commune":"RAEREN","lat":"50.6965632486012","lng":"6.08021860511098"},{"id":4000,"name":"Raeren","commune":"RAEREN","lat":"50.6761437","lng":"6.1109434"},{"id":4001,"name":"Eynatten","commune":"RAEREN","lat":"50.6994921248469","lng":"6.09434656786616"},{"id":4003,"name":"Butgenbach","commune":"BUTGENBACH","lat":"50.4480345189981","lng":"6.19747479558888"},{"id":4004,"name":"Elsenborn","commune":"BUTGENBACH","lat":"50.45557895","lng":"6.21774775258933"},{"id":4005,"name":"Bullange","commune":"BULLANGE","lat":"50.4075533","lng":"6.257827"},{"id":4007,"name":"Manderfeld","commune":"BULLANGE","lat":"50.3310938","lng":"6.3400555"},{"id":4008,"name":"Rocherath","commune":"BULLANGE","lat":"50.4344078","lng":"6.3009381"},{"id":4010,"name":"Amel","commune":"AMBLEVE","lat":"50.3543055","lng":"6.1705559"},{"id":4011,"name":"Meyerode","commune":"AMBLEVE","lat":"50.3288415","lng":"6.1884932"},{"id":4012,"name":"Heppenbach","commune":"AMBLEVE","lat":"50.3631661","lng":"6.218691"},{"id":4013,"name":"Recht","commune":"SAINT-VITH","lat":"50.3349273","lng":"6.0431296"},{"id":4014,"name":"Saint-Vith","commune":"SAINT-VITH","lat":"50.2804293","lng":"6.1260104"},{"id":4015,"name":"Sankt Vith","commune":"SAINT-VITH","lat":"50.2804293","lng":"6.1260104"},{"id":4016,"name":"Schoenberg","commune":"SAINT-VITH","lat":"50.2887657609232","lng":"6.2493434909445"},{"id":4018,"name":"Lommersweiler","commune":"SAINT-VITH","lat":"50.2390657","lng":"6.1653246"},{"id":4019,"name":"Crombach","commune":"SAINT-VITH","lat":"50.2591318","lng":"6.0680547"},{"id":4020,"name":"Burg-Reuland","commune":"BURG-REULAND","lat":"50.196362","lng":"6.1349369"},{"id":4021,"name":"Reuland","commune":"BURG-REULAND","lat":"50.1810692545238","lng":"6.130783003377"},{"id":4022,"name":"Thommen","commune":"BURG-REULAND","lat":"50.2333638440966","lng":"6.07953588639343"},{"id":4023,"name":"Ensival","commune":"VERVIERS","lat":"50.582172","lng":"5.843182"},{"id":4024,"name":"Lambermont","commune":"VERVIERS","lat":"49.7050095","lng":"5.189853"},{"id":4025,"name":"Petit-Rechain","commune":"VERVIERS","lat":"50.6143044","lng":"5.8341784"},{"id":4026,"name":"Verviers","commune":"VERVIERS","lat":"50.5932162213774","lng":"5.86144377915741"},{"id":4027,"name":"Stembert","commune":"VERVIERS","lat":"50.5980716007279","lng":"5.89114056709963"},{"id":4028,"name":"Heusy","commune":"VERVIERS","lat":"50.5803759439273","lng":"5.87009655033517"},{"id":4029,"name":"Dison","commune":"DISON","lat":"50.6240563","lng":"5.8639485"},{"id":4030,"name":"Andrimont","commune":"DISON","lat":"50.6256820727369","lng":"5.8855866594528"},{"id":4031,"name":"Limbourg","commune":"LIMBOURG","lat":"50.6121532","lng":"5.9400907"},{"id":4032,"name":"Bilstain","commune":"LIMBOURG","lat":"50.6246770984352","lng":"5.92176528553854"},{"id":4033,"name":"Go\u00e9","commune":"LIMBOURG","lat":"7.6392","lng":"8.2289"},{"id":4035,"name":"Membach","commune":"BAELEN","lat":"50.6317564266572","lng":"5.97615496901845"},{"id":4036,"name":"Welkenraedt","commune":"WELKENRAEDT","lat":"50.6635769361599","lng":"5.97501154537452"},{"id":4037,"name":"Henri-Chapelle","commune":"WELKENRAEDT","lat":"50.6760069693864","lng":"5.92867174329918"},{"id":4038,"name":"Jalhay","commune":"JALHAY","lat":"50.5407909625576","lng":"5.93503610351366"},{"id":4039,"name":"Sart-lez-Spa","commune":"JALHAY","lat":"50.5407909625576","lng":"5.93503610351366"},{"id":4040,"name":"Montzen","commune":"PLOMBIERES","lat":"50.7207449809943","lng":"5.99023276306528"},{"id":4041,"name":"Moresnet","commune":"PLOMBIERES","lat":"50.7207449809943","lng":"5.99023276306528"},{"id":4042,"name":"Plombi\u00e8res","commune":"PLOMBIERES","lat":"50.7374801","lng":"5.9590725"},{"id":4043,"name":"Gemmenich","commune":"PLOMBIERES","lat":"50.7523571","lng":"5.95447495143693"},{"id":4044,"name":"Sippenaeken","commune":"PLOMBIERES","lat":"50.7525232338083","lng":"5.97696819004016"},{"id":4045,"name":"Hombourg","commune":"PLOMBIERES","lat":"50.7117489319848","lng":"5.92125588221437"},{"id":4046,"name":"Cornesse","commune":"PEPINSTER","lat":"50.586254777546","lng":"5.81604459244912"},{"id":4047,"name":"Pepinster","commune":"PEPINSTER","lat":"50.5675217","lng":"5.8037101"},{"id":4048,"name":"Wegnez","commune":"PEPINSTER","lat":"50.586254777546","lng":"5.81604459244912"},{"id":4049,"name":"Soiron","commune":"PEPINSTER","lat":"50.5921673","lng":"5.7906072"},{"id":4050,"name":"For\u00eat","commune":"TROOZ","lat":"48.0315208","lng":"-4.2650644"},{"id":4051,"name":"Fraipont","commune":"TROOZ","lat":"50.5633358","lng":"5.7498237"},{"id":4052,"name":"Nessonvaux","commune":"TROOZ","lat":"50.573671","lng":"5.7371309"},{"id":4053,"name":"Trooz","commune":"TROOZ","lat":"50.569843","lng":"5.693143"},{"id":4054,"name":"Olne","commune":"OLNE","lat":"50.5901199","lng":"5.7479948"},{"id":4055,"name":"Aubel","commune":"AUBEL","lat":"50.7009555443936","lng":"5.85896896526546"},{"id":4057,"name":"Thimister","commune":"THIMISTER-CLERMONT","lat":"50.6609734587076","lng":"5.87545171605839"},{"id":4058,"name":"Thimister-Clermont","commune":"THIMISTER-CLERMONT","lat":"50.6609734587076","lng":"5.87545171605839"},{"id":4059,"name":"Spa","commune":"SPA","lat":"50.4893933482268","lng":"5.8628679746471"},{"id":4060,"name":"La Reid","commune":"THEUX","lat":"39.7123169","lng":"-77.6791594"},{"id":4061,"name":"Polleur","commune":"THEUX","lat":"50.5390515","lng":"5.8813306"},{"id":4062,"name":"Theux","commune":"THEUX","lat":"50.5354294","lng":"5.8126782"},{"id":4063,"name":"Aywaille","commune":"AYWAILLE","lat":"50.4734827","lng":"5.6742167"},{"id":4064,"name":"Ernonheid","commune":"AYWAILLE","lat":"50.402168","lng":"5.6658931"},{"id":4065,"name":"Harz\u00e9","commune":"AYWAILLE","lat":"51.79187815","lng":"10.1930388926731"},{"id":4067,"name":"Faymonville","commune":"WAIMES","lat":"50.4300030552648","lng":"6.1143268730189"},{"id":4068,"name":"Robertville","commune":"WAIMES","lat":"50.4300030552648","lng":"6.1143268730189"},{"id":4069,"name":"Sourbrodt","commune":"WAIMES","lat":"50.4300030552648","lng":"6.1143268730189"},{"id":4070,"name":"Waimes","commune":"WAIMES","lat":"50.4300030552648","lng":"6.1143268730189"},{"id":4071,"name":"Weismes","commune":"WAIMES","lat":"50.4300030552648","lng":"6.1143268730189"},{"id":4072,"name":"Bellevaux-Ligneuville","commune":"MALMEDY","lat":"50.3760884","lng":"6.0550191"},{"id":4074,"name":"Malmedy","commune":"MALMEDY","lat":"50.4302180865182","lng":"6.04376256336549"},{"id":4075,"name":"Francorchamps","commune":"STAVELOT","lat":"50.4531568","lng":"5.952833"},{"id":4076,"name":"Stavelot","commune":"STAVELOT","lat":"50.4216447296299","lng":"5.94833251683927"},{"id":4078,"name":"Trois-Ponts","commune":"TROIS-PONTS","lat":"50.3563432383286","lng":"5.91731577696946"},{"id":4079,"name":"Wanne","commune":"TROIS-PONTS","lat":"50.3563432383286","lng":"5.91731577696946"},{"id":4080,"name":"Basse-Bodeux","commune":"TROIS-PONTS","lat":"50.3581481","lng":"5.8268244"},{"id":4081,"name":"Chevron","commune":"STOUMONT","lat":"38.3125213","lng":"-100.9101553"},{"id":4082,"name":"La Gleize","commune":"STOUMONT","lat":"45.9915","lng":"4.68952"},{"id":4084,"name":"Rahier","commune":"STOUMONT","lat":"50.386114","lng":"5.7786901"},{"id":4085,"name":"Stoumont","commune":"STOUMONT","lat":"50.4090484308298","lng":"5.8162433354587"},{"id":4086,"name":"Arbrefontaine","commune":"LIERNEUX","lat":"50.3006879","lng":"5.8360163"},{"id":4087,"name":"Bra","commune":"LIERNEUX","lat":"44.6931663","lng":"7.8538131"},{"id":4088,"name":"Lierneux","commune":"LIERNEUX","lat":"50.28574","lng":"5.7920929"},{"id":4089,"name":"Beez","commune":"NAMUR","lat":"50.47369175","lng":"4.91982806940144"},{"id":4090,"name":"Namur","commune":"NAMUR","lat":"50.4665284","lng":"4.8661892"},{"id":4091,"name":"Belgrade","commune":"NAMUR","lat":"50.4702688","lng":"4.82066605608033"},{"id":4092,"name":"Saint-Servais","commune":"NAMUR","lat":"50.48159965","lng":"4.82891008979779"},{"id":4093,"name":"Saint-Marc","commune":"NAMUR","lat":"50.4955151","lng":"4.8478698864643"},{"id":4094,"name":"Bouge","commune":"NAMUR","lat":"50.4788489","lng":"4.88997111879112"},{"id":4095,"name":"Champion","commune":"NAMUR","lat":"50.4978528","lng":"4.9028230450785"},{"id":4096,"name":"Daussoulx","commune":"NAMUR","lat":"50.5162459","lng":"4.87716679606635"},{"id":4097,"name":"Flawinne","commune":"NAMUR","lat":"50.4616857","lng":"4.79858413476227"},{"id":4098,"name":"Malonne","commune":"NAMUR","lat":"50.43473895","lng":"4.80840169218965"},{"id":4100,"name":"Temploux","commune":"NAMUR","lat":"50.48568215","lng":"4.74382801652273"},{"id":4101,"name":"Vedrin","commune":"NAMUR","lat":"50.49310465","lng":"4.87527510286687"},{"id":4102,"name":"Boninne","commune":"NAMUR","lat":"50.49212925","lng":"4.92881468585745"},{"id":4105,"name":"Marche-les-Dames","commune":"NAMUR","lat":"50.49142375","lng":"4.96381874866763"},{"id":4106,"name":"Beuzet","commune":"GEMBLOUX","lat":"50.53387705","lng":"4.72687780776637"},{"id":4107,"name":"Ernage","commune":"GEMBLOUX","lat":"50.5895866","lng":"4.67585255968196"},{"id":4108,"name":"Gembloux","commune":"GEMBLOUX","lat":"50.5605492","lng":"4.6921459"},{"id":4109,"name":"Grand-Manil","commune":"GEMBLOUX","lat":"50.5563654","lng":"4.66049013489019"},{"id":4110,"name":"Lonz\u00e9e","commune":"GEMBLOUX","lat":"46.01373","lng":"8.049702"},{"id":4111,"name":"Sauveni\u00e8re","commune":"GEMBLOUX","lat":"50.5840017","lng":"4.71731395572303"},{"id":4112,"name":"Grand-Leez","commune":"GEMBLOUX","lat":"50.57814485","lng":"4.7608995705059"},{"id":4113,"name":"Bossi\u00e8re","commune":"GEMBLOUX","lat":"50.5235887","lng":"4.69182913363215"},{"id":4114,"name":"Bothey","commune":"GEMBLOUX","lat":"50.5238344","lng":"4.64581503295105"},{"id":4116,"name":"Isnes","commune":"GEMBLOUX","lat":"50.51123835","lng":"4.74646368179035"},{"id":4117,"name":"Mazy","commune":"GEMBLOUX","lat":"50.51099325","lng":"4.68591073199515"},{"id":4118,"name":"Arsimont","commune":"SAMBREVILLE","lat":"50.4273479","lng":"4.6388177"},{"id":4119,"name":"Auvelais","commune":"SAMBREVILLE","lat":"50.45553055","lng":"4.622251078925"},{"id":4120,"name":"Falisolle","commune":"SAMBREVILLE","lat":"50.4182456","lng":"4.621259"},{"id":4123,"name":"Sambreville","commune":"SAMBREVILLE","lat":"50.4409806","lng":"4.6196692"},{"id":4124,"name":"Tamines","commune":"SAMBREVILLE","lat":"50.4340969","lng":"4.607595"},{"id":4125,"name":"Velaine-sur-Sambre","commune":"SAMBREVILLE","lat":"50.4713313","lng":"4.60725"},{"id":4126,"name":"Aisemont","commune":"FOSSES-LA-VILLE","lat":"50.4048557","lng":"4.6513189"},{"id":4127,"name":"Fosses-la-Ville","commune":"FOSSES-LA-VILLE","lat":"50.3959512","lng":"4.6978935"},{"id":4128,"name":"Le Roux","commune":"FOSSES-LA-VILLE","lat":"50.2952956","lng":"2.8983397"},{"id":4129,"name":"Sart-Eustache","commune":"FOSSES-LA-VILLE","lat":"50.3760693","lng":"4.5998195"},{"id":4130,"name":"Sart-Saint-Laurent","commune":"FOSSES-LA-VILLE","lat":"50.4027187","lng":"4.7411668"},{"id":4131,"name":"Vitrival","commune":"FOSSES-LA-VILLE","lat":"50.3941596","lng":"4.6558828"},{"id":4132,"name":"Emines","commune":"LA BRUYERE","lat":"50.5155267","lng":"4.82816225105236"},{"id":4134,"name":"Rhisnes","commune":"LA BRUYERE","lat":"50.5006532","lng":"4.79100806590656"},{"id":4135,"name":"Villers-lez-Heest","commune":"LA BRUYERE","lat":"50.5372696","lng":"4.83325482182919"},{"id":4136,"name":"Warisoulx","commune":"LA BRUYERE","lat":"50.5346794","lng":"4.85875109397775"},{"id":4137,"name":"Bovesse","commune":"LA BRUYERE","lat":"50.5144254","lng":"4.7792018435016"},{"id":4138,"name":"Meux","commune":"LA BRUYERE","lat":"50.5527822","lng":"4.79867926433605"},{"id":4139,"name":"Saint-Denis-Bovesse","commune":"LA BRUYERE","lat":"50.5445652728305","lng":"4.78947600533582"},{"id":4140,"name":"Dave","commune":"NAMUR","lat":"50.41105375","lng":"4.90401088963088"},{"id":4141,"name":"Jambes (Namur)","commune":"NAMUR","lat":"50.4359532100173","lng":"4.89203389821898"},{"id":4142,"name":"Naninne","commune":"NAMUR","lat":"50.41557255","lng":"4.93226872791435"},{"id":4144,"name":"Wierde","commune":"NAMUR","lat":"50.42850205","lng":"4.95105521608736"},{"id":4145,"name":"Erpent","commune":"NAMUR","lat":"50.4474549","lng":"4.90882360519603"},{"id":4146,"name":"Lives-sur-Meuse","commune":"NAMUR","lat":"50.4713466","lng":"4.9384203246474"},{"id":4147,"name":"Loyers","commune":"NAMUR","lat":"50.45791555","lng":"4.94087641908499"},{"id":4149,"name":"Ligny","commune":"SOMBREFFE","lat":"47.1354574","lng":"3.3900934"},{"id":4150,"name":"Sombreffe","commune":"SOMBREFFE","lat":"50.5246589","lng":"4.6025925"},{"id":4151,"name":"Tongrinne","commune":"SOMBREFFE","lat":"50.5157258","lng":"4.623887"},{"id":4152,"name":"Floreffe","commune":"FLOREFFE","lat":"50.4348064","lng":"4.758878"},{"id":4153,"name":"Floriffoux","commune":"FLOREFFE","lat":"50.4426008847064","lng":"4.7789412917869"},{"id":4154,"name":"Frani\u00e8re","commune":"FLOREFFE","lat":"50.4389093","lng":"4.7317891"},{"id":4157,"name":"Bois-de-Villers","commune":"PROFONDEVILLE","lat":"50.3738197087646","lng":"4.86999461882526"},{"id":4158,"name":"Lesve","commune":"PROFONDEVILLE","lat":"50.3773499","lng":"4.7748094"},{"id":4159,"name":"Lustin","commune":"PROFONDEVILLE","lat":"50.3738197087646","lng":"4.86999461882526"},{"id":4160,"name":"Profondeville","commune":"PROFONDEVILLE","lat":"50.3761856","lng":"4.8615297"},{"id":4161,"name":"Rivi\u00e8re","commune":"PROFONDEVILLE","lat":"50.3738197087646","lng":"4.86999461882526"},{"id":4163,"name":"Ham-sur-Sambre","commune":"JEMEPPE-SUR-SAMBRE","lat":"50.44132615","lng":"4.67515552080943"},{"id":4164,"name":"Jemeppe-sur-Sambre","commune":"JEMEPPE-SUR-SAMBRE","lat":"50.4656388","lng":"4.6686837"},{"id":4165,"name":"Mornimont","commune":"JEMEPPE-SUR-SAMBRE","lat":"50.44542615","lng":"4.70192042055574"},{"id":4166,"name":"Moustier-sur-Sambre","commune":"JEMEPPE-SUR-SAMBRE","lat":"50.4639393724104","lng":"4.68551708657913"},{"id":4167,"name":"Onoz","commune":"JEMEPPE-SUR-SAMBRE","lat":"46.4553934","lng":"5.6538304"},{"id":4168,"name":"Saint-Martin","commune":"JEMEPPE-SUR-SAMBRE","lat":"47.74511","lng":"-2.25487"},{"id":4169,"name":"Spy","commune":"JEMEPPE-SUR-SAMBRE","lat":"50.4832911","lng":"4.6954850318867"},{"id":4170,"name":"Andenne","commune":"ANDENNE","lat":"50.4900943","lng":"5.1043923"},{"id":4171,"name":"Bonneville","commune":"ANDENNE","lat":"49.3916845","lng":"-1.4535192"},{"id":4172,"name":"Coutisse","commune":"ANDENNE","lat":"50.4636595","lng":"5.1169603"},{"id":4173,"name":"Landenne","commune":"ANDENNE","lat":"50.4994117024693","lng":"5.04854399893037"},{"id":4174,"name":"Maizeret","commune":"ANDENNE","lat":"50.4598458","lng":"4.978173"},{"id":4175,"name":"Nam\u00eache","commune":"ANDENNE","lat":"27.8042167","lng":"86.7098004"},{"id":4176,"name":"Sclayn","commune":"ANDENNE","lat":"50.4994117024693","lng":"5.04854399893037"},{"id":4177,"name":"Seilles","commune":"ANDENNE","lat":"50.4984249","lng":"5.0805501"},{"id":4178,"name":"Thon","commune":"ANDENNE","lat":"43.8596029","lng":"6.3736077"},{"id":4179,"name":"Vezin","commune":"ANDENNE","lat":"46.0868568","lng":"-0.1941918"},{"id":4180,"name":"Aische-en-Refail","commune":"EGHEZEE","lat":"50.5988682","lng":"4.8359955"},{"id":4181,"name":"Bolinne","commune":"EGHEZEE","lat":"50.6003478","lng":"4.9299565"},{"id":4182,"name":"Boneffe","commune":"EGHEZEE","lat":"50.623868","lng":"4.957465"},{"id":4183,"name":"Branchon","commune":"EGHEZEE","lat":"50.629691","lng":"4.971969"},{"id":4184,"name":"Dhuy","commune":"EGHEZEE","lat":"50.5596814","lng":"4.8573789"},{"id":4186,"name":"Hanret","commune":"EGHEZEE","lat":"50.5834955","lng":"4.9440702"},{"id":4188,"name":"Liernu","commune":"EGHEZEE","lat":"50.5821124","lng":"4.8311032"},{"id":4190,"name":"Mehaigne","commune":"EGHEZEE","lat":"50.6000202891156","lng":"4.88441435565574"},{"id":4192,"name":"Saint-Germain","commune":"EGHEZEE","lat":"49.3669332","lng":"1.5744371"},{"id":4194,"name":"Upigny","commune":"EGHEZEE","lat":"50.5756144","lng":"4.8653991"},{"id":4196,"name":"Assesse","commune":"ASSESSE","lat":"50.3710276","lng":"5.026829"},{"id":4197,"name":"Maillen","commune":"ASSESSE","lat":"50.3775518","lng":"4.9699385"},{"id":4198,"name":"Sart-Bernard","commune":"ASSESSE","lat":"50.405155","lng":"4.9506941"},{"id":4199,"name":"Crupet","commune":"ASSESSE","lat":"50.3468626","lng":"4.9581149"},{"id":4200,"name":"Sorinne-la-Longue","commune":"ASSESSE","lat":"50.3896858","lng":"5.0294375"},{"id":4201,"name":"Flor\u00e9e","commune":"ASSESSE","lat":"52.2374391","lng":"-1.0546291"},{"id":4202,"name":"Courri\u00e8re","commune":"ASSESSE","lat":"50.378301","lng":"4.9845433"},{"id":4203,"name":"Faulx-les-Tombes","commune":"GESVES","lat":"50.4422648715403","lng":"5.00053212313823"},{"id":4204,"name":"Gesves","commune":"GESVES","lat":"50.4028535","lng":"5.0776175"},{"id":4205,"name":"Haltinne","commune":"GESVES","lat":"50.4511381","lng":"5.0746568"},{"id":4206,"name":"Mozet","commune":"GESVES","lat":"50.4422648715403","lng":"5.00053212313823"},{"id":4207,"name":"Sor\u00e9e","commune":"GESVES","lat":"44.3243348","lng":"-0.5803929"},{"id":4208,"name":"Evelette","commune":"OHEY","lat":"50.4135772","lng":"5.171436"},{"id":4209,"name":"Ohey","commune":"OHEY","lat":"50.4359066","lng":"5.1238439"},{"id":4210,"name":"Haillot","commune":"OHEY","lat":"47.4539391","lng":"-2.3578954"},{"id":4212,"name":"Goesnes","commune":"OHEY","lat":"50.4402189","lng":"5.221781"},{"id":4213,"name":"Jallet","commune":"OHEY","lat":"45.9765509","lng":"-0.512572"},{"id":4214,"name":"Hamois","commune":"HAMOIS","lat":"50.3401423667462","lng":"5.10747288711605"},{"id":4215,"name":"Natoye","commune":"HAMOIS","lat":"50.3413559","lng":"5.0562173"},{"id":4216,"name":"Mohiville","commune":"HAMOIS","lat":"50.3176664","lng":"5.1923275"},{"id":4217,"name":"Scy","commune":"HAMOIS","lat":"50.3079186","lng":"5.2094413"},{"id":4218,"name":"Achet","commune":"HAMOIS","lat":"50.3334777","lng":"5.1751963"},{"id":4219,"name":"Emptinne","commune":"HAMOIS","lat":"50.3253905","lng":"5.1212547"},{"id":4220,"name":"Schaltin","commune":"HAMOIS","lat":"50.3579006","lng":"5.1237159"},{"id":4221,"name":"Barvaux-Condroz","commune":"HAVELANGE","lat":"50.3288691","lng":"5.261202"},{"id":4222,"name":"Flostoy","commune":"HAVELANGE","lat":"50.3883757","lng":"5.1845059"},{"id":4223,"name":"Havelange","commune":"HAVELANGE","lat":"50.3870946","lng":"5.23958"},{"id":4226,"name":"Verl\u00e9e","commune":"HAVELANGE","lat":"58.0534029","lng":"12.3023873"},{"id":4227,"name":"M\u00e9an","commune":"HAVELANGE","lat":"37.7398294","lng":"-81.8776191"},{"id":4228,"name":"Maffe","commune":"HAVELANGE","lat":"50.3541336","lng":"5.31261375"},{"id":4229,"name":"Mi\u00e9cret","commune":"HAVELANGE","lat":"50.365689","lng":"5.24941"},{"id":4230,"name":"Baillonville","commune":"SOMME-LEUZE","lat":"50.3040919017225","lng":"5.3487906551998"},{"id":4231,"name":"Bonsin","commune":"SOMME-LEUZE","lat":"50.372924","lng":"5.378717"},{"id":4233,"name":"Hogne","commune":"SOMME-LEUZE","lat":"50.24859","lng":"5.279464"},{"id":4234,"name":"Nettinne","commune":"SOMME-LEUZE","lat":"50.2910362","lng":"5.2612996"},{"id":4235,"name":"Noiseux","commune":"SOMME-LEUZE","lat":"50.3040919017225","lng":"5.3487906551998"},{"id":4236,"name":"Sinsin","commune":"SOMME-LEUZE","lat":"50.275734","lng":"5.2623625"},{"id":4237,"name":"Somme-Leuze","commune":"SOMME-LEUZE","lat":"50.3040919017225","lng":"5.3487906551998"},{"id":4238,"name":"Waillet","commune":"SOMME-LEUZE","lat":"50.260584","lng":"5.304196"},{"id":4239,"name":"Bierwart","commune":"FERNELMONT","lat":"50.5580545","lng":"5.0360917"},{"id":4240,"name":"Cortil-Wodon","commune":"FERNELMONT","lat":"50.567323","lng":"4.958369"},{"id":4241,"name":"Fernelmont","commune":"FERNELMONT","lat":"50.5534642","lng":"4.9763419"},{"id":4242,"name":"Forville","commune":"FERNELMONT","lat":"47.0942573","lng":"0.5507137"},{"id":4243,"name":"Franc-Waret","commune":"FERNELMONT","lat":"50.5210841","lng":"4.9759589"},{"id":4245,"name":"Hingeon","commune":"FERNELMONT","lat":"50.5244901","lng":"5.008801"},{"id":4246,"name":"Marchovelette","commune":"FERNELMONT","lat":"50.5231886","lng":"4.9411438"},{"id":4247,"name":"Noville-les-Bois","commune":"FERNELMONT","lat":"50.5459715561341","lng":"4.99550933037029"},{"id":4248,"name":"Pontillas","commune":"FERNELMONT","lat":"50.5500591","lng":"5.01707"},{"id":4249,"name":"Tillier","commune":"FERNELMONT","lat":"45.7365108","lng":"7.4751482"},{"id":4250,"name":"Anseremme","commune":"DINANT","lat":"50.2558723632498","lng":"4.9168366576793"},{"id":4251,"name":"Bouvignes-sur-Meuse","commune":"DINANT","lat":"50.2558723632498","lng":"4.9168366576793"},{"id":4252,"name":"Dinant","commune":"DINANT","lat":"50.2558723632498","lng":"4.9168366576793"},{"id":4254,"name":"Falmagne","commune":"DINANT","lat":"50.2003101","lng":"4.8971396"},{"id":4255,"name":"Falmignoul","commune":"DINANT","lat":"50.2036477","lng":"4.8929866"},{"id":4256,"name":"Furfooz","commune":"DINANT","lat":"50.223335","lng":"4.9584822"},{"id":4257,"name":"Lisogne","commune":"DINANT","lat":"50.2814293","lng":"4.9715412"},{"id":4258,"name":"Thynes","commune":"DINANT","lat":"50.2798224","lng":"4.9882689"},{"id":4259,"name":"Sorinnes","commune":"DINANT","lat":"50.260159","lng":"4.982409"},{"id":4260,"name":"Foy-Notre-Dame","commune":"DINANT","lat":"50.2471757","lng":"4.9897127"},{"id":4261,"name":"Anth\u00e9e","commune":"ONHAYE","lat":"44.3717578","lng":"0.9602051"},{"id":4262,"name":"Onhaye","commune":"ONHAYE","lat":"50.2435657","lng":"4.840864"},{"id":4263,"name":"Serville","commune":"ONHAYE","lat":"48.7684686","lng":"1.4850236"},{"id":4264,"name":"Fala\u00ebn","commune":"ONHAYE","lat":"5.1232667","lng":"-74.9517204"},{"id":4265,"name":"Sommi\u00e8re","commune":"ONHAYE","lat":"50.274944","lng":"4.8454743"},{"id":4266,"name":"Weillen","commune":"ONHAYE","lat":"50.2596445","lng":"4.8245344"},{"id":4267,"name":"Gerin","commune":"ONHAYE","lat":"46.6877058","lng":"11.4013944"},{"id":4268,"name":"Dorinne","commune":"YVOIR","lat":"50.3173377","lng":"4.97325"},{"id":4269,"name":"Durnal","commune":"YVOIR","lat":"50.3380783","lng":"4.9857278"},{"id":4270,"name":"Evrehailles","commune":"YVOIR","lat":"50.3328837238682","lng":"4.90676639201494"},{"id":4271,"name":"Godinne","commune":"YVOIR","lat":"50.3328837238682","lng":"4.90676639201494"},{"id":4272,"name":"Houx","commune":"YVOIR","lat":"50.3328837238682","lng":"4.90676639201494"},{"id":4273,"name":"Mont (Nam.)","commune":"YVOIR","lat":"29.4621615","lng":"90.9126689"},{"id":4274,"name":"Purnode","commune":"YVOIR","lat":"50.3328837238682","lng":"4.90676639201494"},{"id":4275,"name":"Spontin","commune":"YVOIR","lat":"50.322619","lng":"5.006949"},{"id":4276,"name":"Yvoir","commune":"YVOIR","lat":"50.3328837238682","lng":"4.90676639201494"},{"id":4277,"name":"Anh\u00e9e","commune":"ANHEE","lat":"33.266206","lng":"105.43216"},{"id":4278,"name":"Annevoie-Rouillon","commune":"ANHEE","lat":"50.3247087452981","lng":"4.83311340986159"},{"id":4279,"name":"Bioul","commune":"ANHEE","lat":"50.3336286","lng":"4.7975554"},{"id":4280,"name":"Den\u00e9e","commune":"ANHEE","lat":"54.8863407","lng":"-1.8231297"},{"id":4281,"name":"Haut-le-Wastia","commune":"ANHEE","lat":"50.3247087452981","lng":"4.83311340986159"},{"id":4282,"name":"Sosoye","commune":"ANHEE","lat":"50.2956171","lng":"4.7820146"},{"id":4283,"name":"Warnant","commune":"ANHEE","lat":"50.3247087452981","lng":"4.83311340986159"},{"id":4284,"name":"Hasti\u00e8re","commune":"HASTIERE","lat":"50.19794135","lng":"4.82310602811911"},{"id":4285,"name":"Hasti\u00e8re-Lavaux","commune":"HASTIERE","lat":"50.216541","lng":"4.8242423"},{"id":4286,"name":"Hermeton-sur-Meuse","commune":"HASTIERE","lat":"50.216541","lng":"4.8242423"},{"id":4287,"name":"Waulsort","commune":"HASTIERE","lat":"50.2004439","lng":"4.8602422"},{"id":4288,"name":"Hasti\u00e8re-par-Del\u00e0","commune":"HASTIERE","lat":"50.2150767","lng":"4.8294854"},{"id":4289,"name":"Blaimont","commune":"HASTIERE","lat":"50.192216","lng":"4.8352693"},{"id":4290,"name":"Heer","commune":"HASTIERE","lat":"50.161698","lng":"4.831747"},{"id":4291,"name":"Agimont","commune":"HASTIERE","lat":"50.16421","lng":"4.7942801"},{"id":4292,"name":"Alle","commune":"VRESSE-SUR-SEMOIS","lat":"49.8420892","lng":"4.9703894"},{"id":4293,"name":"Bagimont","commune":"VRESSE-SUR-SEMOIS","lat":"49.8241964","lng":"4.8751221"},{"id":4294,"name":"Bohan","commune":"VRESSE-SUR-SEMOIS","lat":"49.8636253","lng":"4.8854361"},{"id":4295,"name":"Chairi\u00e8re","commune":"VRESSE-SUR-SEMOIS","lat":"49.8612272","lng":"4.9489546"},{"id":4297,"name":"Membre","commune":"VRESSE-SUR-SEMOIS","lat":"49.8631537600649","lng":"4.91824772845485"},{"id":4298,"name":"Mouzaive","commune":"VRESSE-SUR-SEMOIS","lat":"49.853453","lng":"4.9658755"},{"id":4299,"name":"Nafraiture","commune":"VRESSE-SUR-SEMOIS","lat":"49.9106502","lng":"4.9172157"},{"id":4300,"name":"Orchimont","commune":"VRESSE-SUR-SEMOIS","lat":"49.8936753","lng":"4.9274653"},{"id":4301,"name":"Pussemange","commune":"VRESSE-SUR-SEMOIS","lat":"49.8110791","lng":"4.8697858"},{"id":4302,"name":"Sugny","commune":"VRESSE-SUR-SEMOIS","lat":"49.3582488","lng":"4.6560891"},{"id":4303,"name":"Vresse-sur-Semois","commune":"VRESSE-SUR-SEMOIS","lat":"49.8729769","lng":"4.9340633"},{"id":4304,"name":"Baillamont","commune":"BIEVRE","lat":"49.8994469","lng":"5.0267634"},{"id":4306,"name":"Bievre","commune":"BIEVRE","lat":"49.932165495853","lng":"5.02120962723309"},{"id":4307,"name":"Cornimont","commune":"BIEVRE","lat":"47.9639269","lng":"6.8397595"},{"id":4308,"name":"Graide","commune":"BIEVRE","lat":"49.9514336","lng":"5.0674675"},{"id":4309,"name":"Gros-Fays","commune":"BIEVRE","lat":"49.869524","lng":"4.9830915"},{"id":4310,"name":"Monceau-en-Ardenne","commune":"BIEVRE","lat":"49.9046481","lng":"4.9859857"},{"id":4312,"name":"Oizy","commune":"BIEVRE","lat":"49.8937322","lng":"5.0083641"},{"id":4313,"name":"Petit-Fays","commune":"BIEVRE","lat":"49.9015726","lng":"4.9675442"},{"id":4314,"name":"Ciergnon","commune":"HOUYET","lat":"50.1668164","lng":"5.0896596"},{"id":4315,"name":"Finnevaux","commune":"HOUYET","lat":"50.1581671","lng":"4.9452635"},{"id":4316,"name":"Houyet","commune":"HOUYET","lat":"50.1900646","lng":"5.0051364"},{"id":4317,"name":"Hulsonniaux","commune":"HOUYET","lat":"50.201583","lng":"4.947825"},{"id":4318,"name":"Mesnil-Eglise","commune":"HOUYET","lat":"50.1635695","lng":"4.9616357"},{"id":4319,"name":"Mesnil-Saint-Blaise","commune":"HOUYET","lat":"50.1671763","lng":"4.8854633"},{"id":4321,"name":"Custinne","commune":"HOUYET","lat":"50.2117661","lng":"5.0484175"},{"id":4322,"name":"Hour","commune":"HOUYET","lat":"50.1613066","lng":"5.0372408"},{"id":4323,"name":"Wanlin","commune":"HOUYET","lat":"50.1593381","lng":"5.061512"},{"id":4324,"name":"Baronville","commune":"BEAURAING","lat":"48.9345","lng":"6.6091"},{"id":4325,"name":"Beauraing","commune":"BEAURAING","lat":"50.1104131","lng":"4.9566613"},{"id":4326,"name":"Dion","commune":"BEAURAING","lat":"50.1178162","lng":"4.8883798"},{"id":4327,"name":"Felenne","commune":"BEAURAING","lat":"50.071592281042","lng":"4.85739050509554"},{"id":4328,"name":"Feschaux","commune":"BEAURAING","lat":"50.15093","lng":"4.910576"},{"id":4329,"name":"Honnay","commune":"BEAURAING","lat":"50.080705","lng":"5.0397611"},{"id":4330,"name":"Javingue","commune":"BEAURAING","lat":"50.093041","lng":"4.926772"},{"id":4332,"name":"Wancennes","commune":"BEAURAING","lat":"50.0914166","lng":"4.9615516"},{"id":4333,"name":"Winenne","commune":"BEAURAING","lat":"50.071592281042","lng":"4.85739050509554"},{"id":4334,"name":"Wiesme","commune":"BEAURAING","lat":"50.1487792","lng":"4.9767431"},{"id":4335,"name":"Focant","commune":"BEAURAING","lat":"50.1314538","lng":"5.0408552"},{"id":4336,"name":"Martouzin-Neuville","commune":"BEAURAING","lat":"50.1176141","lng":"5.003949"},{"id":4338,"name":"Bourseigne-Neuve","commune":"GEDINNE","lat":"50.0250695","lng":"4.855026"},{"id":4339,"name":"Bourseigne-Vieille","commune":"GEDINNE","lat":"50.0221032","lng":"4.871198"},{"id":4340,"name":"Gedinne","commune":"GEDINNE","lat":"49.9792667","lng":"4.9388966"},{"id":4341,"name":"Houdremont","commune":"GEDINNE","lat":"49.942041","lng":"4.9445943"},{"id":4342,"name":"Louette-Saint-Denis","commune":"GEDINNE","lat":"49.9589147","lng":"4.9572488"},{"id":4343,"name":"Louette-Saint-Pierre","commune":"GEDINNE","lat":"49.9756945656278","lng":"4.92371557189854"},{"id":4344,"name":"Malvoisin","commune":"GEDINNE","lat":"50.0121497","lng":"4.9609972"},{"id":4345,"name":"Patignies","commune":"GEDINNE","lat":"49.9999798","lng":"4.9521201"},{"id":4346,"name":"Rienne","commune":"GEDINNE","lat":"49.9922547","lng":"4.8847815"},{"id":4347,"name":"Sart-Custinne","commune":"GEDINNE","lat":"49.9756945656278","lng":"4.92371557189854"},{"id":4348,"name":"Vencimont","commune":"GEDINNE","lat":"50.0325452","lng":"4.9247057"},{"id":4349,"name":"Willerzie","commune":"GEDINNE","lat":"49.9874142","lng":"4.8475671"},{"id":4350,"name":"Froidfontaine","commune":"BEAURAING","lat":"50.0604028","lng":"5.000634"},{"id":4351,"name":"Ave-et-Auffe","commune":"ROCHEFORT","lat":"50.1089811","lng":"5.1431661"},{"id":4352,"name":"Buissonville","commune":"ROCHEFORT","lat":"50.2172183","lng":"5.1958839"},{"id":4353,"name":"Eprave","commune":"ROCHEFORT","lat":"50.143408","lng":"5.1609064"},{"id":4354,"name":"Han-sur-Lesse","commune":"ROCHEFORT","lat":"50.1289167","lng":"5.19008130204026"},{"id":4355,"name":"Jemelle","commune":"ROCHEFORT","lat":"50.1624278","lng":"5.2624584"},{"id":4356,"name":"Lavaux-Sainte-Anne","commune":"ROCHEFORT","lat":"50.114218","lng":"5.0941061"},{"id":4357,"name":"Lessive","commune":"ROCHEFORT","lat":"50.1396679","lng":"5.1481988"},{"id":4358,"name":"Mont-Gauthier","commune":"ROCHEFORT","lat":"50.2092771","lng":"5.120824"},{"id":4359,"name":"Rochefort","commune":"ROCHEFORT","lat":"50.1528141984151","lng":"5.18095717342081"},{"id":4360,"name":"Villers-sur-Lesse","commune":"ROCHEFORT","lat":"50.1520165","lng":"5.1131211"},{"id":4361,"name":"Wavreille","commune":"ROCHEFORT","lat":"50.121199","lng":"5.248558"},{"id":4363,"name":"Braibant","commune":"CINEY","lat":"50.2908501231012","lng":"5.10006294216836"},{"id":4364,"name":"Chevetogne","commune":"CINEY","lat":"50.223801","lng":"5.1188335"},{"id":4365,"name":"Ciney","commune":"CINEY","lat":"50.2949558","lng":"5.0974251"},{"id":4366,"name":"Conneux","commune":"CINEY","lat":"50.2496153","lng":"5.0603857"},{"id":4367,"name":"Haversin","commune":"CINEY","lat":"50.2531051","lng":"5.208871"},{"id":4368,"name":"Leignon","commune":"CINEY","lat":"50.2908501231012","lng":"5.10006294216836"},{"id":4369,"name":"Pessoux","commune":"CINEY","lat":"50.2835992","lng":"5.1676545"},{"id":4370,"name":"Serinchamps","commune":"CINEY","lat":"50.232007","lng":"5.23425"},{"id":4371,"name":"Sovet","commune":"CINEY","lat":"50.296303","lng":"5.0349178"},{"id":4372,"name":"Fagnolle","commune":"PHILIPPEVILLE","lat":"50.1050216","lng":"4.5703749"},{"id":4373,"name":"Franchimont","commune":"PHILIPPEVILLE","lat":"50.1900466","lng":"4.6393972"},{"id":4374,"name":"Jamagne","commune":"PHILIPPEVILLE","lat":"50.1945112164354","lng":"4.55436057479967"},{"id":4375,"name":"Jamiolle","commune":"PHILIPPEVILLE","lat":"50.1945112164354","lng":"4.55436057479967"},{"id":4376,"name":"Merlemont","commune":"PHILIPPEVILLE","lat":"50.1728667","lng":"4.6072911"},{"id":4377,"name":"Neuville (Philippeville)","commune":"PHILIPPEVILLE","lat":"50.1945112164354","lng":"4.55436057479967"},{"id":4379,"name":"Philippeville","commune":"PHILIPPEVILLE","lat":"50.195588","lng":"4.5449033"},{"id":4380,"name":"Roly","commune":"PHILIPPEVILLE","lat":"50.1346992","lng":"4.538564"},{"id":4381,"name":"Romedenne","commune":"PHILIPPEVILLE","lat":"50.1724056","lng":"4.6979645"},{"id":4382,"name":"Samart","commune":"PHILIPPEVILLE","lat":"50.1945112164354","lng":"4.55436057479967"},{"id":4383,"name":"Sart-en-Fagne","commune":"PHILIPPEVILLE","lat":"50.1579167","lng":"4.6199447"},{"id":4384,"name":"Sautour","commune":"PHILIPPEVILLE","lat":"50.1945112164354","lng":"4.55436057479967"},{"id":4385,"name":"Surice","commune":"PHILIPPEVILLE","lat":"44.4925","lng":"19.3947222"},{"id":4386,"name":"Villers-en-Fagne","commune":"PHILIPPEVILLE","lat":"50.1457902","lng":"4.5846227"},{"id":4387,"name":"Villers-le-Gambon","commune":"PHILIPPEVILLE","lat":"50.1904615","lng":"4.6084845"},{"id":4389,"name":"Corenne","commune":"FLORENNES","lat":"50.2519501","lng":"4.6792792"},{"id":4390,"name":"Flavion","commune":"FLORENNES","lat":"50.2496186","lng":"4.7134091"},{"id":4391,"name":"Florennes","commune":"FLORENNES","lat":"50.2514227","lng":"4.6030187"},{"id":4392,"name":"Hemptinne-lez-Florennes","commune":"FLORENNES","lat":"50.2282738","lng":"4.5631279"},{"id":4393,"name":"Morville","commune":"FLORENNES","lat":"47.6161124","lng":"4.4296113"},{"id":4394,"name":"Ros\u00e9e","commune":"FLORENNES","lat":"39.398495","lng":"16.287193"},{"id":4395,"name":"Saint-Aubin","commune":"FLORENNES","lat":"50.2494799","lng":"4.60742145"},{"id":4396,"name":"Hanzinelle","commune":"FLORENNES","lat":"50.2949873","lng":"4.5607099"},{"id":4397,"name":"Hanzinne","commune":"FLORENNES","lat":"50.3084666","lng":"4.5435524"},{"id":4399,"name":"Thy-le-Bauduin","commune":"FLORENNES","lat":"50.2952481","lng":"4.524047"},{"id":4400,"name":"Cerfontaine","commune":"CERFONTAINE","lat":"50.1687764","lng":"4.4125932"},{"id":4401,"name":"Daussois","commune":"CERFONTAINE","lat":"50.2192085","lng":"4.45141735"},{"id":4402,"name":"Senzeille","commune":"CERFONTAINE","lat":"50.2192085","lng":"4.45141735"},{"id":4403,"name":"Silenrieux","commune":"CERFONTAINE","lat":"50.2192085","lng":"4.45141735"},{"id":4404,"name":"Soumoy","commune":"CERFONTAINE","lat":"50.2192085","lng":"4.45141735"},{"id":4405,"name":"Villers-Deux-Eglises","commune":"CERFONTAINE","lat":"50.2192085","lng":"4.45141735"},{"id":4406,"name":"Biesme","commune":"METTET","lat":"50.339683","lng":"4.610335"},{"id":4408,"name":"Graux","commune":"METTET","lat":"50.325597","lng":"4.7203188"},{"id":4409,"name":"Mettet","commune":"METTET","lat":"50.3212094","lng":"4.6584949"},{"id":4410,"name":"Oret","commune":"METTET","lat":"50.2995967","lng":"4.6157777"},{"id":4411,"name":"Saint-G\u00e9rard","commune":"METTET","lat":"49.5216616","lng":"1.607247"},{"id":4412,"name":"Furnaux","commune":"METTET","lat":"50.3080016","lng":"4.7055271"},{"id":4413,"name":"Ermeton-sur-Biert","commune":"METTET","lat":"50.2975439","lng":"4.7197934"},{"id":4414,"name":"Stave","commune":"METTET","lat":"50.282695","lng":"4.6597281"},{"id":4415,"name":"Castillon","commune":"WALCOURT","lat":"43.4655649","lng":"-0.5761497"},{"id":4418,"name":"Fontenelle","commune":"WALCOURT","lat":"50.0313889","lng":"3.8663889"},{"id":4419,"name":"Fraire","commune":"WALCOURT","lat":"44.701326","lng":"7.3719925"},{"id":4420,"name":"Pry","commune":"WALCOURT","lat":"50.273814","lng":"4.4326804"},{"id":4422,"name":"Walcourt","commune":"WALCOURT","lat":"50.2530734","lng":"4.4343478"},{"id":4424,"name":"Berz\u00e9e","commune":"WALCOURT","lat":"55.6526321","lng":"22.407014"},{"id":4425,"name":"Gourdinne","commune":"WALCOURT","lat":"50.2899588","lng":"4.456597"},{"id":4426,"name":"Laneffe","commune":"WALCOURT","lat":"50.2778386","lng":"4.4950207"},{"id":4427,"name":"Rogn\u00e9e","commune":"WALCOURT","lat":"46.0483093","lng":"2.3117569"},{"id":4429,"name":"Tarcienne","commune":"WALCOURT","lat":"50.3119341","lng":"4.4983015"},{"id":4431,"name":"Aublain","commune":"COUVIN","lat":"50.0672297","lng":"4.4090395"},{"id":4432,"name":"Boussu-en-Fagne","commune":"COUVIN","lat":"50.086710025","lng":"4.5069716"},{"id":4435,"name":"Couvin","commune":"COUVIN","lat":"50.0524906","lng":"4.4955009"},{"id":4436,"name":"Cul-des-Sarts","commune":"COUVIN","lat":"49.9615402","lng":"4.4549981"},{"id":4437,"name":"Dailly","commune":"COUVIN","lat":"55.2764431","lng":"-4.7240275"},{"id":4439,"name":"Gonrieux","commune":"COUVIN","lat":"50.0374018","lng":"4.4236449"},{"id":4440,"name":"Mariembourg","commune":"COUVIN","lat":"50.086710025","lng":"4.5069716"},{"id":4441,"name":"Pesche","commune":"COUVIN","lat":"41.6074903","lng":"14.279204"},{"id":4442,"name":"Petigny","commune":"COUVIN","lat":"50.086710025","lng":"4.5069716"},{"id":4443,"name":"Petite-Chapelle","commune":"COUVIN","lat":"48.4481809","lng":"0.3887267"},{"id":4444,"name":"Presgaux","commune":"COUVIN","lat":"50.0247898","lng":"4.4206168"},{"id":4445,"name":"Dourbes","commune":"VIROINVAL","lat":"50.091356","lng":"4.59145"},{"id":4446,"name":"Le Mesnil","commune":"VIROINVAL","lat":"49.3692396","lng":"-1.6958747"},{"id":4447,"name":"Maz\u00e9e","commune":"VIROINVAL","lat":"47.4554296","lng":"-0.2724533"},{"id":4448,"name":"Nismes","commune":"VIROINVAL","lat":"50.0745275","lng":"4.5486173"},{"id":4449,"name":"Oignies-en-Thi\u00e9rache","commune":"VIROINVAL","lat":"50.0237221","lng":"4.6396988"},{"id":4450,"name":"Olloy-sur-Viroin","commune":"VIROINVAL","lat":"50.0726831","lng":"4.607218"},{"id":4451,"name":"Treignes","commune":"VIROINVAL","lat":"50.0922698","lng":"4.6692715"},{"id":4452,"name":"Vierves-sur-Viroin","commune":"VIROINVAL","lat":"50.080269","lng":"4.634249"},{"id":4453,"name":"Viroinval","commune":"VIROINVAL","lat":"50.0701859","lng":"4.6054916"},{"id":4454,"name":"Doische","commune":"DOISCHE","lat":"50.1357152","lng":"4.7458219"},{"id":4457,"name":"Matagne-la-Grande","commune":"DOISCHE","lat":"50.1171293","lng":"4.6236448"},{"id":4458,"name":"Matagne-la-Petite","commune":"DOISCHE","lat":"50.1186008","lng":"4.6468816"},{"id":4461,"name":"Soulme","commune":"DOISCHE","lat":"50.1648024366752","lng":"4.72802084980175"},{"id":4462,"name":"Vaucelles","commune":"DOISCHE","lat":"49.2863889","lng":"-0.7347222"},{"id":4464,"name":"Charleroi","commune":"CHARLEROI","lat":"50.4120332","lng":"4.4436244"},{"id":4465,"name":"Marcinelle","commune":"CHARLEROI","lat":"50.3975312","lng":"4.4443284"},{"id":4466,"name":"Couillet","commune":"CHARLEROI","lat":"50.391219","lng":"4.468631"},{"id":4467,"name":"Dampremy","commune":"CHARLEROI","lat":"50.41644775","lng":"4.42585668423875"},{"id":4468,"name":"Goutroux","commune":"CHARLEROI","lat":"50.41665455","lng":"4.36103920862209"},{"id":4469,"name":"Marchienne-au-Pont","commune":"CHARLEROI","lat":"50.4067102","lng":"4.3960065"},{"id":4470,"name":"Monceau-sur-Sambre","commune":"CHARLEROI","lat":"50.4138765","lng":"4.38007647778613"},{"id":4471,"name":"Mont-sur-Marchienne","commune":"CHARLEROI","lat":"50.3900832","lng":"4.4049664"},{"id":4473,"name":"Gosselies","commune":"CHARLEROI","lat":"50.4653846","lng":"4.4301757"},{"id":4474,"name":"Lodelinsart","commune":"CHARLEROI","lat":"50.431853","lng":"4.4489421"},{"id":4475,"name":"Ransart","commune":"CHARLEROI","lat":"50.45592655","lng":"4.48141240245063"},{"id":4476,"name":"Roux","commune":"CHARLEROI","lat":"50.4416891","lng":"4.39068079906222"},{"id":4477,"name":"Gilly (Charleroi)","commune":"CHARLEROI","lat":"50.4244811803736","lng":"4.47588514295414"},{"id":4478,"name":"Montignies-sur-Sambre","commune":"CHARLEROI","lat":"50.4110787","lng":"4.47300202591072"},{"id":4479,"name":"Montigny-le-Tilleul","commune":"MONTIGNY-LE-TILLEUL","lat":"50.3792869","lng":"4.3801793"},{"id":4480,"name":"Landelies","commune":"MONTIGNY-LE-TILLEUL","lat":"50.377822","lng":"4.3496404"},{"id":4481,"name":"Cour-sur-Heure","commune":"HAM-SUR-HEURE-NALINNES","lat":"50.3171621","lng":"4.3803219"},{"id":4482,"name":"Ham-sur-Heure","commune":"HAM-SUR-HEURE-NALINNES","lat":"50.3171621","lng":"4.3803219"},{"id":4483,"name":"Ham-sur-Heure-Nalinnes","commune":"HAM-SUR-HEURE-NALINNES","lat":"50.3171621","lng":"4.3803219"},{"id":4484,"name":"Jamioulx","commune":"HAM-SUR-HEURE-NALINNES","lat":"50.3171621","lng":"4.3803219"},{"id":4486,"name":"Nalinnes","commune":"HAM-SUR-HEURE-NALINNES","lat":"50.3171621","lng":"4.3803219"},{"id":4488,"name":"Forchies-la-Marche","commune":"FONTAINE-L'EVEQUE","lat":"50.4383794","lng":"4.3198191"},{"id":4489,"name":"Leernes","commune":"FONTAINE-L'EVEQUE","lat":"50.3974940250713","lng":"4.3307736852849"},{"id":4490,"name":"Anderlues","commune":"ANDERLUES","lat":"50.4079969","lng":"4.2696102"},{"id":4491,"name":"Courcelles","commune":"COURCELLES","lat":"50.4601576","lng":"4.3763406"},{"id":4493,"name":"Souvret","commune":"COURCELLES","lat":"50.450999","lng":"4.350827"},{"id":4494,"name":"Trazegnies","commune":"COURCELLES","lat":"50.4621151841911","lng":"4.33800983203091"},{"id":4495,"name":"Bouffioulx","commune":"CHATELET","lat":"50.4073879193467","lng":"4.50974071475662"},{"id":4498,"name":"Frasnes-lez-Gosselies","commune":"LES BONS VILLERS","lat":"50.53576105","lng":"4.44343377963598"},{"id":4499,"name":"Les Bons Villers","commune":"LES BONS VILLERS","lat":"50.5226424","lng":"4.4763492"},{"id":4501,"name":"Villers-Perwin","commune":"LES BONS VILLERS","lat":"50.5224204","lng":"4.48125630860573"},{"id":4502,"name":"Wayaux","commune":"LES BONS VILLERS","lat":"50.48750585","lng":"4.46906017391326"},{"id":4503,"name":"Mellet","commune":"LES BONS VILLERS","lat":"50.50448085","lng":"4.47817006822336"},{"id":4504,"name":"Fleurus","commune":"FLEURUS","lat":"50.4823502","lng":"4.5504994"},{"id":4505,"name":"Heppignies","commune":"FLEURUS","lat":"50.47562805","lng":"4.49516692033196"},{"id":4506,"name":"Lambusart","commune":"FLEURUS","lat":"50.45355875","lng":"4.55790746870224"},{"id":4507,"name":"Wangenies","commune":"FLEURUS","lat":"50.477401","lng":"4.51504724478947"},{"id":4508,"name":"Saint-Amand","commune":"FLEURUS","lat":"50.51117985","lng":"4.53190903883136"},{"id":4509,"name":"Brye","commune":"FLEURUS","lat":"50.5299097","lng":"4.56132884207517"},{"id":4512,"name":"Buzet","commune":"PONT-A-CELLES","lat":"50.53909695","lng":"4.37146754686241"},{"id":4513,"name":"Obaix","commune":"PONT-A-CELLES","lat":"50.53432255","lng":"4.34027045040899"},{"id":4514,"name":"Pont-\u00e0-Celles","commune":"PONT-A-CELLES","lat":"50.5122563","lng":"4.3617367"},{"id":4516,"name":"Viesville","commune":"PONT-A-CELLES","lat":"50.4908316","lng":"4.40325656474053"},{"id":4517,"name":"Liberchies","commune":"PONT-A-CELLES","lat":"50.5153083","lng":"4.42428459523906"},{"id":4518,"name":"Luttre","commune":"PONT-A-CELLES","lat":"50.51477855","lng":"4.38884295322437"},{"id":4519,"name":"Farciennes","commune":"FARCIENNES","lat":"50.4273087","lng":"4.5530418"},{"id":4520,"name":"Pironchamps","commune":"FARCIENNES","lat":"50.43016875","lng":"4.52928437428621"},{"id":4521,"name":"Aiseau","commune":"AISEAU-PRESLES","lat":"50.4090237","lng":"4.5853209"},{"id":4522,"name":"Aiseau-Presles","commune":"AISEAU-PRESLES","lat":"50.4090237","lng":"4.5853209"},{"id":4523,"name":"Pont-de-Loup","commune":"AISEAU-PRESLES","lat":"50.4173702","lng":"4.5459892"},{"id":4524,"name":"Presles","commune":"AISEAU-PRESLES","lat":"50.4090237","lng":"4.5853209"},{"id":4525,"name":"Roselies","commune":"AISEAU-PRESLES","lat":"50.4289142","lng":"4.5728849"},{"id":4526,"name":"Acoz","commune":"GERPINNES","lat":"50.352057","lng":"4.4979927"},{"id":4527,"name":"Gerpinnes","commune":"GERPINNES","lat":"50.3377968","lng":"4.527588"},{"id":4528,"name":"Gougnies","commune":"GERPINNES","lat":"50.3544437","lng":"4.5771625"},{"id":4529,"name":"Joncret","commune":"GERPINNES","lat":"50.352057","lng":"4.4979927"},{"id":4530,"name":"Loverval","commune":"GERPINNES","lat":"50.352057","lng":"4.4979927"},{"id":4531,"name":"Villers-Poterie","commune":"GERPINNES","lat":"50.3513008","lng":"4.547498"},{"id":4532,"name":"Boussu-lez-Walcourt","commune":"FROID-CHAPELLE","lat":"50.2262753","lng":"4.3767743"},{"id":4533,"name":"Fourbechies","commune":"FROID-CHAPELLE","lat":"50.1666667","lng":"4.3166667"},{"id":4534,"name":"Froidchapelle","commune":"FROID-CHAPELLE","lat":"50.1511597","lng":"4.3269129"},{"id":4535,"name":"Vergnies","commune":"FROID-CHAPELLE","lat":"50.198614","lng":"4.3059105"},{"id":4536,"name":"Erpion","commune":"FROID-CHAPELLE","lat":"50.2118893","lng":"4.3512321"},{"id":4537,"name":"Baili\u00e8vre","commune":"CHIMAY","lat":"50.069276","lng":"4.238617"},{"id":4538,"name":"Chimay","commune":"CHIMAY","lat":"50.0455058","lng":"4.3152623"},{"id":4539,"name":"Robechies","commune":"CHIMAY","lat":"50.072802","lng":"4.278378"},{"id":4541,"name":"Salles","commune":"CHIMAY","lat":"44.550875","lng":"-0.8699921"},{"id":4542,"name":"Villers-la-Tour","commune":"CHIMAY","lat":"50.035369","lng":"4.26287"},{"id":4543,"name":"Virelles","commune":"CHIMAY","lat":"50.0648008","lng":"4.3329805"},{"id":4544,"name":"Vaulx-lez-Chimay","commune":"CHIMAY","lat":"50.061113","lng":"4.363579"},{"id":4545,"name":"Lompret","commune":"CHIMAY","lat":"50.6702048","lng":"2.9901813"},{"id":4546,"name":"Baileux","commune":"CHIMAY","lat":"50.029732","lng":"4.3759964"},{"id":4547,"name":"Bourlers","commune":"CHIMAY","lat":"50.027359","lng":"4.341293"},{"id":4548,"name":"Forges","commune":"CHIMAY","lat":"45.1552097","lng":"1.8712462"},{"id":4550,"name":"Ri\u00e8zes","commune":"CHIMAY","lat":"49.960822","lng":"4.368311"},{"id":4551,"name":"Grandrieu","commune":"SIVRY-RANCE","lat":"50.1654922","lng":"4.1797475"},{"id":4552,"name":"Montbliart","commune":"SIVRY-RANCE","lat":"50.1344457","lng":"4.224365"},{"id":4553,"name":"Rance","commune":"SIVRY-RANCE","lat":"50.1654922","lng":"4.1797475"},{"id":4554,"name":"Sautin","commune":"SIVRY-RANCE","lat":"50.1654922","lng":"4.1797475"},{"id":4555,"name":"Sivry","commune":"SIVRY-RANCE","lat":"50.1654922","lng":"4.1797475"},{"id":4556,"name":"Sivry-Rance","commune":"SIVRY-RANCE","lat":"50.1654922","lng":"4.1797475"},{"id":4558,"name":"Beaumont","commune":"BEAUMONT","lat":"50.2355294","lng":"4.2383115"},{"id":4559,"name":"Leugnies","commune":"BEAUMONT","lat":"50.224642","lng":"4.196155"},{"id":4560,"name":"Leval-Chaudeville","commune":"BEAUMONT","lat":"50.2349363","lng":"4.2289677"},{"id":4561,"name":"Renlies","commune":"BEAUMONT","lat":"50.189927","lng":"4.2670432"},{"id":4563,"name":"Thirimont","commune":"BEAUMONT","lat":"50.2608137","lng":"4.2364418"},{"id":4565,"name":"Leers-et-Fosteau","commune":"THUIN","lat":"50.3041589","lng":"4.244767"},{"id":4566,"name":"Thuin","commune":"THUIN","lat":"50.3397354","lng":"4.2865162"},{"id":4567,"name":"Biesme-sous-Thuin","commune":"THUIN","lat":"50.320724","lng":"4.3079897"},{"id":4568,"name":"Ragnies","commune":"THUIN","lat":"50.3091961","lng":"4.2866769"},{"id":4569,"name":"Bierc\u00e9e","commune":"THUIN","lat":"46.8072141","lng":"-83.0689347"},{"id":4570,"name":"Goz\u00e9e","commune":"THUIN","lat":"46.1680339","lng":"2.1679433"},{"id":4571,"name":"Donstiennes","commune":"THUIN","lat":"50.2854167","lng":"4.3119991"},{"id":4572,"name":"Thuillies","commune":"THUIN","lat":"50.2947304","lng":"4.329007"},{"id":4573,"name":"Lobbes","commune":"LOBBES","lat":"50.3464272","lng":"4.265329"},{"id":4574,"name":"Mont-Sainte-Genevi\u00e8ve","commune":"LOBBES","lat":"50.3766211","lng":"4.2377392"},{"id":4575,"name":"Sars-la-Buissi\u00e8re","commune":"LOBBES","lat":"50.3352549","lng":"4.209803"},{"id":4576,"name":"Bienne-lez-Happart","commune":"LOBBES","lat":"50.3512087","lng":"4.2155807"},{"id":4577,"name":"Bersillies-l'Abbaye","commune":"ERQUELINNES","lat":"50.2631919","lng":"4.1520931"},{"id":4578,"name":"Erquelinnes","commune":"ERQUELINNES","lat":"50.3100494","lng":"4.1219429"},{"id":4579,"name":"Grand-Reng","commune":"ERQUELINNES","lat":"50.3287642","lng":"4.0705909"},{"id":4580,"name":"Hantes-Wih\u00e9ries","commune":"ERQUELINNES","lat":"50.2994263710322","lng":"4.15974371262661"},{"id":4581,"name":"Montignies-Saint-Christophe","commune":"ERQUELINNES","lat":"50.2815734","lng":"4.1884975"},{"id":4582,"name":"Solre-sur-Sambre","commune":"ERQUELINNES","lat":"50.2994263710322","lng":"4.15974371262661"},{"id":4583,"name":"Fontaine-Valmont","commune":"MERBES-LE-CHATEAU","lat":"50.3208131","lng":"4.2137302"},{"id":4584,"name":"Labuissi\u00e8re","commune":"MERBES-LE-CHATEAU","lat":"50.3141612","lng":"4.194796"},{"id":4586,"name":"Merbes-Sainte-Marie","commune":"MERBES-LE-CHATEAU","lat":"50.3552041","lng":"4.1711042"},{"id":4587,"name":"Momignies","commune":"MOMIGNIES","lat":"50.029408","lng":"4.1661801"},{"id":4588,"name":"Macon","commune":"MOMIGNIES","lat":"32.8406946","lng":"-83.6324022"},{"id":4589,"name":"Monceau-Imbrechies","commune":"MOMIGNIES","lat":"50.036452","lng":"4.224118"},{"id":4590,"name":"Macquenoise","commune":"MOMIGNIES","lat":"49.9755399","lng":"4.1802891"},{"id":4591,"name":"Beauwelz","commune":"MOMIGNIES","lat":"50.015365","lng":"4.156972"},{"id":4592,"name":"Forge-Philippe","commune":"MOMIGNIES","lat":"49.96543","lng":"4.2520681"},{"id":4593,"name":"Seloignes","commune":"MOMIGNIES","lat":"50.016087","lng":"4.255615"},{"id":4594,"name":"Bastogne","commune":"BASTOGNE","lat":"50.0009951","lng":"5.7153203"},{"id":4595,"name":"Longvilly","commune":"BASTOGNE","lat":"50.024207","lng":"5.8372932"},{"id":4597,"name":"Villers-la-Bonne-Eau","commune":"BASTOGNE","lat":"49.9341374","lng":"5.748904"},{"id":4598,"name":"Wardin","commune":"BASTOGNE","lat":"49.9902268","lng":"5.7857948"},{"id":4599,"name":"Martelange","commune":"MARTELANGE","lat":"49.8367212","lng":"5.7379661"},{"id":4600,"name":"Fauvillers","commune":"FAUVILLERS","lat":"49.8511745157043","lng":"5.66446323686434"},{"id":4601,"name":"Hollange","commune":"FAUVILLERS","lat":"49.9064531","lng":"5.6881541"},{"id":4602,"name":"Tintange","commune":"FAUVILLERS","lat":"49.8787486","lng":"5.7526806"},{"id":4604,"name":"Morhet","commune":"VAUX-SUR-SURE","lat":"49.9621505","lng":"5.5842091"},{"id":4605,"name":"Nives","commune":"VAUX-SUR-SURE","lat":"49.9121387","lng":"5.602746"},{"id":4606,"name":"Sibret","commune":"VAUX-SUR-SURE","lat":"49.9680714","lng":"5.6363345"},{"id":4607,"name":"Vaux-lez-Rosi\u00e8res","commune":"VAUX-SUR-SURE","lat":"49.9145392","lng":"5.5705056"},{"id":4608,"name":"Vaux-sur-Sure","commune":"VAUX-SUR-SURE","lat":"49.9122548","lng":"5.5678013"},{"id":4609,"name":"Juseret","commune":"VAUX-SUR-SURE","lat":"49.8803425","lng":"5.5494778"},{"id":4610,"name":"Houffalize","commune":"HOUFFALIZE","lat":"50.15174688778","lng":"5.68128927948534"},{"id":4611,"name":"Nadrin","commune":"HOUFFALIZE","lat":"50.15174688778","lng":"5.68128927948534"},{"id":4612,"name":"Mont (Lux.)","commune":"HOUFFALIZE","lat":"45.7343746","lng":"-111.0666151"},{"id":4613,"name":"Tailles","commune":"HOUFFALIZE","lat":"50.2272012","lng":"5.7447558"},{"id":4614,"name":"Tavigny","commune":"HOUFFALIZE","lat":"50.1081487","lng":"5.837773"},{"id":4616,"name":"Wibrin","commune":"HOUFFALIZE","lat":"50.1659375","lng":"5.7144036"},{"id":4617,"name":"Gouvy","commune":"GOUVY","lat":"50.1892536268738","lng":"5.94796706742863"},{"id":4619,"name":"Bovigny","commune":"GOUVY","lat":"50.2244199","lng":"5.9182421"},{"id":4620,"name":"Beho","commune":"GOUVY","lat":"50.2204041","lng":"5.9972247"},{"id":4621,"name":"Cherain","commune":"GOUVY","lat":"50.1805579","lng":"5.8648541"},{"id":4622,"name":"Montleban","commune":"GOUVY","lat":"50.1889929","lng":"5.836417"},{"id":4623,"name":"Amberloup","commune":"SAINTE-ODE","lat":"50.0300032","lng":"5.5299974"},{"id":4624,"name":"Sainte-Ode","commune":"SAINTE-ODE","lat":"50.0300032","lng":"5.5299974"},{"id":4625,"name":"Tillet","commune":"SAINTE-ODE","lat":"49.257809","lng":"2.3285044"},{"id":4626,"name":"Lavacherie","commune":"SAINTE-ODE","lat":"50.0528915","lng":"5.5116692"},{"id":4627,"name":"Flamierge","commune":"BERTOGNE","lat":"50.0333519","lng":"5.6038758"},{"id":4628,"name":"Bertogne","commune":"BERTOGNE","lat":"50.0533793656531","lng":"5.63862846110347"},{"id":4630,"name":"Bihain","commune":"VIELSALM","lat":"50.2390245","lng":"5.8082072"},{"id":4631,"name":"Vielsalm","commune":"VIELSALM","lat":"50.2925086181537","lng":"5.90872891906449"},{"id":4632,"name":"Petit-Thier","commune":"VIELSALM","lat":"50.3074461","lng":"5.9672766"},{"id":4633,"name":"Grand-Halleux","commune":"VIELSALM","lat":"50.3257297","lng":"5.9077692"},{"id":4634,"name":"Arlon","commune":"ARLON","lat":"49.6836031","lng":"5.8139376"},{"id":4635,"name":"Bonnert","commune":"ARLON","lat":"49.6993624986493","lng":"5.81677678231438"},{"id":4636,"name":"Heinsch","commune":"ARLON","lat":"49.7009177","lng":"5.7466605"},{"id":4637,"name":"Toernich","commune":"ARLON","lat":"49.6512359","lng":"5.7795299"},{"id":4638,"name":"Guirsch","commune":"ARLON","lat":"49.719375","lng":"5.8536041"},{"id":4639,"name":"Autelbas","commune":"ARLON","lat":"49.6479949","lng":"5.8669186"},{"id":4640,"name":"Attert","commune":"ATTERT","lat":"49.7491017","lng":"5.7880698"},{"id":4641,"name":"Nobressart","commune":"ATTERT","lat":"49.7399333","lng":"5.7187077"},{"id":4642,"name":"Nothomb","commune":"ATTERT","lat":"49.7491017","lng":"5.7880698"},{"id":4643,"name":"Thiaumont","commune":"ATTERT","lat":"49.7157101","lng":"5.7300977"},{"id":4644,"name":"Tontelange","commune":"ATTERT","lat":"49.7491017","lng":"5.7880698"},{"id":4645,"name":"Habay","commune":"HABAY","lat":"49.7279171","lng":"5.64653953333333"},{"id":4646,"name":"Habay-la-Neuve","commune":"HABAY","lat":"49.7279171","lng":"5.64653953333333"},{"id":4647,"name":"Hachy","commune":"HABAY","lat":"49.7279171","lng":"5.64653953333333"},{"id":4648,"name":"Anlier","commune":"HABAY","lat":"49.771299","lng":"5.6204033"},{"id":4649,"name":"Habay-la-Vieille","commune":"HABAY","lat":"49.7237687","lng":"5.6219448"},{"id":4650,"name":"Houdemont","commune":"HABAY","lat":"49.71755975","lng":"5.57987383141206"},{"id":4651,"name":"Marbehan","commune":"HABAY","lat":"49.7183817","lng":"5.5575547"},{"id":4652,"name":"Rulles","commune":"HABAY","lat":"49.7183817","lng":"5.5575547"},{"id":4654,"name":"Rossignol","commune":"TINTIGNY","lat":"49.2755756","lng":"0.6480264"},{"id":4655,"name":"Saint-Vincent","commune":"TINTIGNY","lat":"49.6772359","lng":"5.47868664131257"},{"id":4656,"name":"Tintigny","commune":"TINTIGNY","lat":"49.6747602666667","lng":"5.51238546666667"},{"id":4657,"name":"Etalle","commune":"ETALLE","lat":"49.6741667","lng":"5.6006855"},{"id":4658,"name":"Sainte-Marie-sur-Semois","commune":"ETALLE","lat":"49.6716827","lng":"5.5640488"},{"id":4659,"name":"Villers-sur-Semois","commune":"ETALLE","lat":"49.6986791","lng":"5.5627068"},{"id":4660,"name":"Vance","commune":"ETALLE","lat":"47.8317838","lng":"0.6469322"},{"id":4661,"name":"Chantemelle","commune":"ETALLE","lat":"49.6527979","lng":"5.6526046"},{"id":4662,"name":"Buzenol","commune":"ETALLE","lat":"49.6462109","lng":"5.5957354"},{"id":4664,"name":"Meix-le-Tige","commune":"SAINT-LEGER","lat":"49.6161996","lng":"5.719089"},{"id":4666,"name":"Musson","commune":"MUSSON","lat":"49.5596012","lng":"5.7056107"},{"id":4667,"name":"Mussy-la-Ville","commune":"MUSSON","lat":"49.5712473","lng":"5.6615609"},{"id":4668,"name":"Signeulx","commune":"MUSSON","lat":"49.5526462","lng":"5.6412946"},{"id":4669,"name":"Bleid","commune":"VIRTON","lat":"49.5696638","lng":"5.6267208"},{"id":4670,"name":"Ethe","commune":"VIRTON","lat":"49.5587465666667","lng":"5.58398523333333"},{"id":4671,"name":"Ruette","commune":"VIRTON","lat":"49.5587465666667","lng":"5.58398523333333"},{"id":4672,"name":"Virton","commune":"VIRTON","lat":"49.56772","lng":"5.5327018"},{"id":4673,"name":"Latour","commune":"VIRTON","lat":"49.5582037","lng":"5.5707027"},{"id":4674,"name":"Saint-Mard","commune":"VIRTON","lat":"49.5577562","lng":"5.5284511"},{"id":4675,"name":"Dampicourt","commune":"ROUVROY","lat":"49.5553011","lng":"5.4979579"},{"id":4676,"name":"Harnoncourt","commune":"ROUVROY","lat":"49.534288","lng":"5.4996797"},{"id":4677,"name":"Lamorteau","commune":"ROUVROY","lat":"49.5296962041931","lng":"5.48700030001095"},{"id":4678,"name":"Rouvroy","commune":"ROUVROY","lat":"49.539075","lng":"5.48971"},{"id":4679,"name":"Torgny","commune":"ROUVROY","lat":"49.5085018","lng":"5.4735035"},{"id":4681,"name":"Meix-Devant-Virton","commune":"MEIX-DEVANT-VIRTON","lat":"49.6056441","lng":"5.4791383"},{"id":4682,"name":"Robelmont","commune":"MEIX-DEVANT-VIRTON","lat":"49.5956027","lng":"5.507856"},{"id":4683,"name":"Sommethonne","commune":"MEIX-DEVANT-VIRTON","lat":"49.5771798","lng":"5.4461414"},{"id":4684,"name":"Villers-la-Loue","commune":"MEIX-DEVANT-VIRTON","lat":"49.5755221","lng":"5.4793558"},{"id":4685,"name":"Hondelange","commune":"MESSANCY","lat":"49.6338525","lng":"5.8312611"},{"id":4686,"name":"Messancy","commune":"MESSANCY","lat":"49.5969055","lng":"5.8169286"},{"id":4687,"name":"Wolkrange","commune":"MESSANCY","lat":"49.6206235961865","lng":"5.80239451970918"},{"id":4689,"name":"Habergy","commune":"MESSANCY","lat":"49.6153377","lng":"5.7608307"},{"id":4690,"name":"Aubange","commune":"AUBANGE","lat":"49.5694493","lng":"5.804441"},{"id":4691,"name":"Athus","commune":"AUBANGE","lat":"49.5686009864775","lng":"5.83636845089968"},{"id":4692,"name":"Halanzy","commune":"AUBANGE","lat":"49.5594954822811","lng":"5.73960266752935"},{"id":4693,"name":"Rachecourt","commune":"AUBANGE","lat":"49.5594954822811","lng":"5.73960266752935"},{"id":4694,"name":"Bras","commune":"LIBRAMONT-CHEVIGNY","lat":"43.4720265","lng":"5.9534995"},{"id":4695,"name":"Freux","commune":"LIBRAMONT-CHEVIGNY","lat":"49.9708428","lng":"5.4497307"},{"id":4696,"name":"Libramont-Chevigny","commune":"LIBRAMONT-CHEVIGNY","lat":"49.9197154","lng":"5.3823537"},{"id":4697,"name":"Moircy","commune":"LIBRAMONT-CHEVIGNY","lat":"49.9894846","lng":"5.468077"},{"id":4698,"name":"Recogne","commune":"LIBRAMONT-CHEVIGNY","lat":"50.0527474","lng":"5.7359991"},{"id":4699,"name":"Remagne","commune":"LIBRAMONT-CHEVIGNY","lat":"49.9767035","lng":"5.4940312"},{"id":4700,"name":"Sainte-Marie-Chevigny","commune":"LIBRAMONT-CHEVIGNY","lat":"49.9235741","lng":"5.4578106"},{"id":4701,"name":"Saint-Pierre","commune":"LIBRAMONT-CHEVIGNY","lat":"-21.3398705","lng":"55.4721901"},{"id":4702,"name":"Chiny","commune":"CHINY","lat":"49.6885472067989","lng":"5.38685087737264"},{"id":4703,"name":"Izel","commune":"CHINY","lat":"49.6885472067989","lng":"5.38685087737264"},{"id":4704,"name":"Jamoigne","commune":"CHINY","lat":"49.6885472067989","lng":"5.38685087737264"},{"id":4705,"name":"Les Bulles","commune":"CHINY","lat":"47.2486743","lng":"1.3786895"},{"id":4706,"name":"Suxy","commune":"CHINY","lat":"49.7626877","lng":"5.4005563"},{"id":4707,"name":"Termes","commune":"CHINY","lat":"43.0004148","lng":"2.5621374"},{"id":4708,"name":"Florenville","commune":"FLORENVILLE","lat":"49.6981125","lng":"5.3097847"},{"id":4709,"name":"Fontenoille","commune":"FLORENVILLE","lat":"49.71508","lng":"5.234469"},{"id":4710,"name":"Muno","commune":"FLORENVILLE","lat":"49.717679","lng":"5.1759524"},{"id":4712,"name":"Lacuisine","commune":"FLORENVILLE","lat":"49.7161365","lng":"5.3184063"},{"id":4713,"name":"Villers-Devant-Orval","commune":"FLORENVILLE","lat":"49.6363868","lng":"5.3468639"},{"id":4714,"name":"Chassepierre","commune":"FLORENVILLE","lat":"49.7076905","lng":"5.2621817"},{"id":4715,"name":"Bouillon","commune":"BOUILLON","lat":"49.794594","lng":"5.0689689"},{"id":4716,"name":"Les Hayons","commune":"BOUILLON","lat":"49.813009","lng":"5.144601"},{"id":4717,"name":"Poupehan","commune":"BOUILLON","lat":"49.8115586","lng":"5.0035785"},{"id":4718,"name":"Rochehaut","commune":"BOUILLON","lat":"49.8402294","lng":"5.0066415"},{"id":4719,"name":"Noirefontaine","commune":"BOUILLON","lat":"47.349","lng":"6.76095"},{"id":4720,"name":"Sensenruth","commune":"BOUILLON","lat":"49.8255176","lng":"5.07241"},{"id":4721,"name":"Ucimont","commune":"BOUILLON","lat":"49.8313796","lng":"5.0584947"},{"id":4722,"name":"Vivy","commune":"BOUILLON","lat":"47.326892","lng":"-0.0558806"},{"id":4723,"name":"Bellevaux","commune":"BOUILLON","lat":"46.2575","lng":"6.531944"},{"id":4724,"name":"Dohan","commune":"BOUILLON","lat":"49.7973741","lng":"5.1418578"},{"id":4725,"name":"Corbion","commune":"BOUILLON","lat":"48.6359034","lng":"0.5074469"},{"id":4726,"name":"Grandvoir","commune":"NEUFCHATEAU","lat":"49.8584002","lng":"5.372728"},{"id":4727,"name":"Grapfontaine","commune":"NEUFCHATEAU","lat":"49.8213157","lng":"5.4068629"},{"id":4729,"name":"Longlier","commune":"NEUFCHATEAU","lat":"49.8562222","lng":"5.4609005"},{"id":4731,"name":"Tournay","commune":"NEUFCHATEAU","lat":"43.1840974","lng":"0.2430695"},{"id":4732,"name":"Carlsbourg","commune":"PALISEUL","lat":"49.8947611","lng":"5.0830529"},{"id":4733,"name":"Offagne","commune":"PALISEUL","lat":"49.8860691","lng":"5.174954"},{"id":4734,"name":"Paliseul","commune":"PALISEUL","lat":"49.9035269","lng":"5.1349041"},{"id":4735,"name":"Nollevaux","commune":"PALISEUL","lat":"49.8703488","lng":"5.1216094"},{"id":4736,"name":"Maissin","commune":"PALISEUL","lat":"49.9651106","lng":"5.1805775"},{"id":4737,"name":"Opont","commune":"PALISEUL","lat":"49.9348854","lng":"5.1195276"},{"id":4738,"name":"Framont","commune":"PALISEUL","lat":"47.5776","lng":"5.57765"},{"id":4739,"name":"Fays-les-Veneurs","commune":"PALISEUL","lat":"49.8658777","lng":"5.1618372"},{"id":4740,"name":"Assenois","commune":"LEGLISE","lat":"49.9661927","lng":"5.6801408"},{"id":4741,"name":"Ebly","commune":"LEGLISE","lat":"49.8529019","lng":"5.5424397"},{"id":4743,"name":"Mellier","commune":"LEGLISE","lat":"45.6226354","lng":"7.6376751"},{"id":4744,"name":"Witry","commune":"LEGLISE","lat":"49.8588782","lng":"5.6138508"},{"id":4745,"name":"Arville","commune":"SAINT-HUBERT","lat":"50.0323986","lng":"5.3166577"},{"id":4746,"name":"Awenne","commune":"SAINT-HUBERT","lat":"50.0323986","lng":"5.3166577"},{"id":4747,"name":"Hatrival","commune":"SAINT-HUBERT","lat":"50.0323986","lng":"5.3166577"},{"id":4748,"name":"Mirwart","commune":"SAINT-HUBERT","lat":"50.0565039","lng":"5.2633277"},{"id":4749,"name":"Saint-Hubert","commune":"SAINT-HUBERT","lat":"50.0323986","lng":"5.3166577"},{"id":4750,"name":"Vesqueville","commune":"SAINT-HUBERT","lat":"48.8860162","lng":"-0.1574588"},{"id":4751,"name":"Auby-sur-Semois","commune":"BERTRIX","lat":"49.8157293","lng":"5.1823489"},{"id":4752,"name":"Bertrix","commune":"BERTRIX","lat":"49.85597395","lng":"5.255195"},{"id":4753,"name":"Cugnon","commune":"BERTRIX","lat":"45.8122179","lng":"6.7280796"},{"id":4754,"name":"Jehonville","commune":"BERTRIX","lat":"49.9065515","lng":"5.2022069"},{"id":4755,"name":"Orgeo","commune":"BERTRIX","lat":"49.8342719","lng":"5.3072993"},{"id":4756,"name":"Herbeumont","commune":"HERBEUMONT","lat":"49.7815364","lng":"5.2377736"},{"id":4758,"name":"Straimont","commune":"HERBEUMONT","lat":"49.7949497","lng":"5.381972"},{"id":4759,"name":"Anloy","commune":"LIBIN","lat":"49.9499043","lng":"5.2215609"},{"id":4760,"name":"Libin","commune":"LIBIN","lat":"49.9828906","lng":"5.2566959"},{"id":4761,"name":"Ochamps","commune":"LIBIN","lat":"49.9244612","lng":"5.2781878"},{"id":4762,"name":"Redu","commune":"LIBIN","lat":"50.0077873","lng":"5.1601828"},{"id":4763,"name":"Smuid","commune":"LIBIN","lat":"50.0188027","lng":"5.2662483"},{"id":4764,"name":"Transinne","commune":"LIBIN","lat":"50.0004466","lng":"5.2026639"},{"id":4765,"name":"Villance","commune":"LIBIN","lat":"49.9709626","lng":"5.2221196"},{"id":4766,"name":"Aye","commune":"MARCHE-EN-FAMENNE","lat":"50.22057055","lng":"5.29472459168744"},{"id":4767,"name":"Hargimont","commune":"MARCHE-EN-FAMENNE","lat":"50.1728441950154","lng":"5.28430262659586"},{"id":4768,"name":"Humain","commune":"MARCHE-EN-FAMENNE","lat":"50.1728441950154","lng":"5.28430262659586"},{"id":4769,"name":"Marche-en-Famenne","commune":"MARCHE-EN-FAMENNE","lat":"50.1728441950154","lng":"5.28430262659586"},{"id":4770,"name":"On","commune":"MARCHE-EN-FAMENNE","lat":"50.1728441950154","lng":"5.28430262659586"},{"id":4771,"name":"Roy","commune":"MARCHE-EN-FAMENNE","lat":"41.1617999","lng":"-112.0261903"},{"id":4772,"name":"Waha","commune":"MARCHE-EN-FAMENNE","lat":"46.213215","lng":"-116.8520922"},{"id":4773,"name":"Sohier","commune":"WELLIN","lat":"50.0685885","lng":"5.0702515"},{"id":4774,"name":"Wellin","commune":"WELLIN","lat":"50.0694763","lng":"5.11124425263041"},{"id":4775,"name":"Chanly","commune":"WELLIN","lat":"50.0786533","lng":"5.1559991"},{"id":4776,"name":"Halma","commune":"WELLIN","lat":"50.0751422","lng":"5.1352282"},{"id":4777,"name":"Lomprez","commune":"WELLIN","lat":"50.0762474","lng":"5.092143"},{"id":4778,"name":"Bure","commune":"TELLIN","lat":"50.0910108071472","lng":"5.25642361796478"},{"id":4779,"name":"Grupont","commune":"TELLIN","lat":"50.0910108071472","lng":"5.25642361796478"},{"id":4780,"name":"Resteigne","commune":"TELLIN","lat":"50.0828516","lng":"5.1778089"},{"id":4781,"name":"Tellin","commune":"TELLIN","lat":"50.0910108071472","lng":"5.25642361796478"},{"id":4782,"name":"Daverdisse","commune":"DAVERDISSE","lat":"50.0217646","lng":"5.1184644"},{"id":4783,"name":"Gembes","commune":"DAVERDISSE","lat":"49.997198","lng":"5.063233"},{"id":4784,"name":"Haut-Fays","commune":"DAVERDISSE","lat":"50.0017421","lng":"5.016947"},{"id":4787,"name":"Durbuy","commune":"DURBUY","lat":"50.3518383","lng":"5.4577616"},{"id":4788,"name":"Grandhan","commune":"DURBUY","lat":"50.3299795","lng":"5.4086678"},{"id":4789,"name":"Septon","commune":"DURBUY","lat":"50.3570338","lng":"5.423028"},{"id":4791,"name":"Bende","commune":"DURBUY","lat":"50.4176261","lng":"5.4142387"},{"id":4792,"name":"Bomal-sur-Ourthe","commune":"DURBUY","lat":"50.3760087","lng":"5.5223752"},{"id":4793,"name":"Borlon","commune":"DURBUY","lat":"50.3789563","lng":"5.4050643"},{"id":4794,"name":"Heyd","commune":"DURBUY","lat":"50.379841","lng":"5.5914322"},{"id":4795,"name":"Izier","commune":"DURBUY","lat":"50.379841","lng":"5.5914322"},{"id":4796,"name":"Tohogne","commune":"DURBUY","lat":"50.3806776","lng":"5.4799577"},{"id":4797,"name":"Villers-Sainte-Gertrude","commune":"DURBUY","lat":"50.379841","lng":"5.5914322"},{"id":4798,"name":"Harsin","commune":"NASSOGNE","lat":"50.173788","lng":"5.3475606"},{"id":4799,"name":"Nassogne","commune":"NASSOGNE","lat":"50.1285667","lng":"5.3420786"},{"id":4800,"name":"Bande","commune":"NASSOGNE","lat":"42.0311347","lng":"-7.9743264"},{"id":4801,"name":"Grune","commune":"NASSOGNE","lat":"50.1549918","lng":"5.3828952"},{"id":4802,"name":"Ambly","commune":"NASSOGNE","lat":"50.1439677","lng":"5.3125251"},{"id":4803,"name":"Forri\u00e8res","commune":"NASSOGNE","lat":"50.1327327","lng":"5.2777651"},{"id":4804,"name":"Lesterny","commune":"NASSOGNE","lat":"50.1116077","lng":"5.2793657"},{"id":4805,"name":"Masbourg","commune":"NASSOGNE","lat":"50.0912086","lng":"5.3263809"},{"id":4806,"name":"Dochamps","commune":"MANHAY","lat":"50.234199","lng":"5.6230297"},{"id":4807,"name":"Grandmenil","commune":"MANHAY","lat":"50.2922823","lng":"5.6625445"},{"id":4808,"name":"Harre","commune":"MANHAY","lat":"50.3516772","lng":"5.6587925"},{"id":4810,"name":"Manhay","commune":"MANHAY","lat":"50.2920719","lng":"5.6770679"},{"id":4811,"name":"Odeigne","commune":"MANHAY","lat":"50.2563686","lng":"5.682551"},{"id":4812,"name":"Vaux-Chavanne","commune":"MANHAY","lat":"50.3021516","lng":"5.6968767"},{"id":4813,"name":"Tenneville","commune":"TENNEVILLE","lat":"50.0927747","lng":"5.5240288"},